[{"City": "", "Functional_Location": "10003", "Description": "HAYSLADD (DSR)", "District": "GREAT MALVERN", "Longitude": "-2.3370925", "Y": "244771", "Postal_Code": "WR14 4EG", "Ownership": "STW FLOC", "Latitude": "52.093735", "X": "376670", "Street_Housenumber": "WEST MALVERN ROAD"}, {"City": "", "Functional_Location": "10004", "Description": "YEW TREE HILL 1 & 2 (DSR)", "District": "DROITWICH SPA", "Longitude": "-2.1459069", "Y": "261625", "Postal_Code": "WR9 7JQ", "Ownership": "STW FLOC", "Latitude": "52.250219", "X": "390261", "Street_Housenumber": "NEWLAND ROAD"}, {"City": "", "Functional_Location": "10006", "Description": "LEAMINGTON - MILLHOUSE TERRACE (SPS)", "District": "LEAMINGTON SPA", "Longitude": "-1.558519", "Y": "265765", "Postal_Code": "CV32 6AL", "Ownership": "STW FLOC", "Latitude": "52.289168", "X": "430238", "Street_Housenumber": "4/5 MILL HOUSE TERRACE"}, {"City": "BILTON", "Functional_Location": "10009", "Description": "BILTON - CHESHIRE CLOSE (SPS)", "District": "RUGBY", "Longitude": "-1.2928989", "Y": "273894", "Postal_Code": "CV22 7JU", "Ownership": "STW FLOC", "Latitude": "52.360555", "X": "448255", "Street_Housenumber": "CHESHIRE CLOSE"}, {"City": "", "Functional_Location": "10010", "Description": "SHIPSTON-ON-STOUR - FELDON (SPS)", "District": "SHIPSTON ON STOUR", "Longitude": "-1.6196299", "Y": "241213", "Postal_Code": "CV36 4HU", "Ownership": "STW FLOC", "Latitude": "52.069051", "X": "426096", "Street_Housenumber": "STAFFORD ROAD"}, {"City": "LOWER MILLS BRIDGEND", "Functional_Location": "10011", "Description": "STONEHOUSE - BRIDGEND (BAG MILL) (SPS)", "District": "STONEHOUSE", "Longitude": "-2.2892116", "Y": "204691", "Postal_Code": "GL10 2AY", "Ownership": "STW FLOC", "Latitude": "51.740441", "X": "380160", "Street_Housenumber": "NEXT TO 1 ALBION TERRACE"}, {"City": "STREAM LANE", "Functional_Location": "10012", "Description": "NEWENT - FORDHOUSE (SPS)", "District": "NEWENT", "Longitude": "-2.3704883", "Y": "226890", "Postal_Code": "GL18 1ED", "Ownership": "STW FLOC", "Latitude": "51.94197", "X": "373588", "Street_Housenumber": "NEXT TO APPLEYARD COTTAGE"}, {"City": "KITES HARDWICK", "Functional_Location": "10014", "Description": "DRAYCOTE RES (DIR)", "District": "NR RUGBY", "Longitude": "-1.3198615", "Y": "269904", "Postal_Code": "CV23 8AB", "Ownership": "STW FLOC", "Latitude": "52.319304", "X": "446177", "Street_Housenumber": "JUST OFF THE A426"}, {"City": "KNIGHTCOTE VILLAGE", "Functional_Location": "10016", "Description": "KNIGHTCOTE VILLAGE - KIMBLE CLOSE (SPS)", "District": "KNIGHTCOTE VILLAGE", "Longitude": "-1.4171279", "Y": "254418", "Postal_Code": "CV47 2SJ", "Ownership": "STW FLOC", "Latitude": "52.186388", "X": "439941", "Street_Housenumber": "KIMBLE CLOSE"}, {"City": "", "Functional_Location": "10017", "Description": "LONGNEY VILLAGE (SPS)", "District": "LONGNEY", "Longitude": "-2.346159", "Y": "212620", "Postal_Code": "GL2 3SN", "Ownership": "STW FLOC", "Latitude": "51.812638", "X": "376218", "Street_Housenumber": "OPP MANOR COTTAGE"}, {"City": "KIRKBY IN ASHFIELD", "Functional_Location": "10018", "Description": "NORMANS HOLLOW - KIRKBY (GWS)", "District": "NOTTINGHAM", "Longitude": "-1.2109448", "Y": "355515", "Postal_Code": "NG17 7QP", "Ownership": "STW FLOC", "Latitude": "53.0957", "X": "453944", "Street_Housenumber": "BLIDWORTH ROAD B6020"}, {"City": "BROAD MARSTON", "Functional_Location": "10019", "Description": "BROAD MARSTON (TPS)", "District": "STRATFORD ON AVON", "Longitude": "-1.7943078", "Y": "246419", "Postal_Code": "CV37 8XZ", "Ownership": "STW FLOC", "Latitude": "52.114861", "X": "414064", "Street_Housenumber": ""}, {"City": "NAUNTON BEAUCHAMP", "Functional_Location": "10020", "Description": "NAUNTON BEAUCHAMP (STW)", "District": "PERSHORE", "Longitude": "-2.0556901", "Y": "252200", "Postal_Code": "WR10 2LJ", "Ownership": "STW FLOC", "Latitude": "52.168439", "X": "396100", "Street_Housenumber": "ORCHARD LEA"}, {"City": "", "Functional_Location": "10021", "Description": "PEOPLETON - MONKS WAY (SPS)", "District": "PEOPLETON", "Longitude": "-2.0909567", "Y": "250655", "Postal_Code": "WR10 2EH", "Ownership": "STW FLOC", "Latitude": "52.15449", "X": "393987", "Street_Housenumber": "MONKS WAY"}, {"City": "", "Functional_Location": "10022", "Description": "SEDGEBERROW (STW)", "District": "SEDGEBERROW", "Longitude": "-1.9670573", "Y": "238857", "Postal_Code": "WR11 7FJ", "Ownership": "STW FLOC", "Latitude": "52.048631", "X": "402421", "Street_Housenumber": "CHELTENHAM ROAD"}, {"City": "STOULTON", "Functional_Location": "10023", "Description": "STOULTON - HAWBRIDGE (STW)", "District": "WORCESTER", "Longitude": "-2.1381988", "Y": "249060", "Postal_Code": "WR7 4RJ", "Ownership": "STW FLOC", "Latitude": "52.140869", "X": "390870", "Street_Housenumber": "EAST OF HAWBRIDGE VILLAGE"}, {"City": "", "Functional_Location": "10024", "Description": "TILESFORD PARK (STW)", "District": "PERSHORE", "Longitude": "-2.0548895", "Y": "249873", "Postal_Code": "WR10 2JW", "Ownership": "STW FLOC", "Latitude": "52.147662", "X": "396366", "Street_Housenumber": "TILESFORD PARK"}, {"City": "ASTON SOMERVILLE", "Functional_Location": "10025", "Description": "ASTON SOMERVILLE (STW)", "District": "BROADWAY", "Longitude": "-1.9338789", "Y": "238053", "Postal_Code": "WR12 7JF", "Ownership": "STW FLOC", "Latitude": "52.04182", "X": "404588", "Street_Housenumber": "CHURCH ROAD"}, {"City": "NR PERSHORE", "Functional_Location": "10026", "Description": "BISHAMPTON (STW)", "District": "BISHAMPTON", "Longitude": "-2.0151298", "Y": "251857", "Postal_Code": "WR10 2LU", "Ownership": "STW FLOC", "Latitude": "52.163983", "X": "399141", "Street_Housenumber": "ABBERTON ROAD"}, {"City": "BLACKMINSTER", "Functional_Location": "10027", "Description": "BLACKMINSTER (STW)", "District": "EVESHAM", "Longitude": "-1.9023254", "Y": "244850", "Postal_Code": "WR11 8JJ", "Ownership": "STW FLOC", "Latitude": "52.103554", "X": "406863", "Street_Housenumber": "STATION ROAD"}, {"City": "BREDON", "Functional_Location": "10028", "Description": "BREDON-FLEET LANE (STW)", "District": "TEWKESBURY", "Longitude": "-2.1259307", "Y": "236208", "Postal_Code": "GL20 7EF", "Ownership": "STW FLOC", "Latitude": "52.023996", "X": "391469", "Street_Housenumber": "FLEET LANE"}, {"City": "BREDONS HARDWICKE", "Functional_Location": "10029", "Description": "BREDONS HARDWICK (SPS)", "District": "TEWKESBURY", "Longitude": "-2.1280308", "Y": "235520", "Postal_Code": "GL20 7ED", "Ownership": "STW FLOC", "Latitude": "52.01432", "X": "391215", "Street_Housenumber": ""}, {"City": "CROPTHORNE HEATH", "Functional_Location": "10030", "Description": "CROPTHORNE HEATH (STW)", "District": "PERSHORE", "Longitude": "-2.0122906", "Y": "244619", "Postal_Code": "WR10 3JY", "Ownership": "STW FLOC", "Latitude": "52.101598", "X": "398951", "Street_Housenumber": "MAIN ROAD"}, {"City": "TYDDESLEY WOOD", "Functional_Location": "10031", "Description": "PERSHORE - DEFFORD ROAD (SPS)", "District": "DEFFORD", "Longitude": "-2.0791468", "Y": "245111", "Postal_Code": "WR10 1HU", "Ownership": "STW FLOC", "Latitude": "52.105303", "X": "394372", "Street_Housenumber": "DEFFORD ROAD"}, {"City": "DEFFORD", "Functional_Location": "10032", "Description": "DEFFORD VILLAGE (STW)", "District": "EVESHAM", "Longitude": "-2.1189381", "Y": "243000", "Postal_Code": "WR8 9BA", "Ownership": "STW FLOC", "Latitude": "52.085346", "X": "391900", "Street_Housenumber": "SPRING BANK"}, {"City": "ECKINGTON", "Functional_Location": "10033", "Description": "ECKINGTON (STW)", "District": "PERSHORE", "Longitude": "-2.1185111", "Y": "240651", "Postal_Code": "WR10 3BG", "Ownership": "STW FLOC", "Latitude": "52.06742", "X": "391744", "Street_Housenumber": "MILL LANE"}, {"City": "", "Functional_Location": "10034", "Description": "ECKINGTON - MILL LANE (SPS)", "District": "ECKINGTON", "Longitude": "-2.1185111", "Y": "240863", "Postal_Code": "WR10 3BG", "Ownership": "STW FLOC", "Latitude": "52.06742", "X": "391841", "Street_Housenumber": "MILL LANE"}, {"City": "HAMPTON PARKS", "Functional_Location": "10035", "Description": "EVESHAM (STW)", "District": "EVESHAM", "Longitude": "-1.9637988", "Y": "244787", "Postal_Code": "WR11 2RF", "Ownership": "STW FLOC", "Latitude": "52.093358", "X": "402852", "Street_Housenumber": "RED LANE"}, {"City": "FLYFORD FLAVEL", "Functional_Location": "10036", "Description": "FLYFORD FAVELL - FLYFORD ARMS (SPS)", "District": "ALCESTER ROAD", "Longitude": "-2.0299327", "Y": "255313", "Postal_Code": "WR7 4DB", "Ownership": "STW FLOC", "Latitude": "52.197235", "X": "397930", "Street_Housenumber": "FLYFORD ARMS"}, {"City": "", "Functional_Location": "10037", "Description": "FLYFORD FLAVELL - GLEBE FARM (TPS)", "District": "FLYFORD FLAVELL", "Longitude": "-2.0293577", "Y": "254615", "Postal_Code": "WR7 4BT", "Ownership": "STW FLOC", "Latitude": "52.190637", "X": "398277", "Street_Housenumber": "GLEBE FARM"}, {"City": "PEBWORTH", "Functional_Location": "10038", "Description": "PEBWORTH VILLAGE (STW)", "District": "STRATFORD ON AVON", "Longitude": "-1.8028428", "Y": "246455", "Postal_Code": "CV37 8XT", "Ownership": "STW FLOC", "Latitude": "52.116682", "X": "413724", "Street_Housenumber": "BROAD MARSTON"}, {"City": "PEOPLETON", "Functional_Location": "10039", "Description": "PEOPLETON RBC (STW)", "District": "PERSHORE", "Longitude": "-2.09296", "Y": "250795", "Postal_Code": "WR10 2EG", "Ownership": "STW FLOC", "Latitude": "52.154858", "X": "393731", "Street_Housenumber": ""}, {"City": "TYDDESLEY WOOD", "Functional_Location": "10040", "Description": "PERSHORE (STW)", "District": "BESFORD", "Longitude": "-2.1167055", "Y": "244893", "Postal_Code": "WR8 9AX", "Ownership": "STW FLOC", "Latitude": "52.102179", "X": "392147", "Street_Housenumber": "SALTERS LANE"}, {"City": "PIRTON", "Functional_Location": "10041", "Description": "PIRTON (STW)", "District": "WORCESTER", "Longitude": "-2.1767108", "Y": "247428", "Postal_Code": "WR8 9EH", "Ownership": "STW FLOC", "Latitude": "52.124787", "X": "387977", "Street_Housenumber": "ADJ COUNCIL HOUSE"}, {"City": "STOULTON", "Functional_Location": "10042", "Description": "STOULTON - WINDMILL HILL (STW)", "District": "WORCESTER", "Longitude": "-2.1199453", "Y": "249662", "Postal_Code": "WR7 4RX", "Ownership": "STW FLOC", "Latitude": "52.145168", "X": "391940", "Street_Housenumber": "STATION CLOSE WINDMILL HILL"}, {"City": "", "Functional_Location": "10043", "Description": "THROCKMORTON (STW)", "District": "THROCKMORTON", "Longitude": "-2.0267711", "Y": "249800", "Postal_Code": "WR10 2JS", "Ownership": "STW FLOC", "Latitude": "52.146728", "X": "398200", "Street_Housenumber": "LONG LANE"}, {"City": "TWYNING GREEN", "Functional_Location": "10044", "Description": "TWYNING (STW)", "District": "TEWKESBURY", "Longitude": "-2.1375522", "Y": "237081", "Postal_Code": "GL20 6DL", "Ownership": "STW FLOC", "Latitude": "52.035455", "X": "390585", "Street_Housenumber": "DOWNFIELD LANE"}, {"City": "WADBOROUGH", "Functional_Location": "10045", "Description": "WADBOROUGH (STW)", "District": "STATION ROAD", "Longitude": "-2.1470644", "Y": "247663", "Postal_Code": "WR8 9HA", "Ownership": "STW FLOC", "Latitude": "52.126419", "X": "389925", "Street_Housenumber": "STATION ROAD"}, {"City": "LITTLE COMBERTON", "Functional_Location": "10046", "Description": "LITTLE COMBERTON (STW)", "District": "EVESHAM", "Longitude": "-2.0513703", "Y": "243301", "Postal_Code": "WR10 3EN", "Ownership": "STW FLOC", "Latitude": "52.086906", "X": "396397", "Street_Housenumber": "PERSHORE ROAD"}, {"City": "HINTON ON THE GREEN", "Functional_Location": "10047", "Description": "HINTON-ON-THE-GREEN (STW)", "District": "EVESHAM", "Longitude": "-1.9700656", "Y": "240548", "Postal_Code": "WR11 2SY", "Ownership": "STW FLOC", "Latitude": "52.063978", "X": "402334", "Street_Housenumber": "BEVENS LANE"}, {"City": "", "Functional_Location": "10048", "Description": "HINTON ON THE GREEN (TPS)", "District": "HINTON ON THE GREEN", "Longitude": "-1.9601044", "Y": "240295", "Postal_Code": "WR11 2QT", "Ownership": "STW FLOC", "Latitude": "52.062096", "X": "402936", "Street_Housenumber": "HINTON ON THE GREEN SPS"}, {"City": "", "Functional_Location": "10049", "Description": "HONEYBOURNE AIRFIELD (TPS)", "District": "HONEYBOURNE", "Longitude": "-1.8301524", "Y": "242562", "Postal_Code": "WR11 7QF", "Ownership": "STW FLOC", "Latitude": "52.078209", "X": "411749", "Street_Housenumber": "HONEYBOURNE AIRFIELD"}, {"City": "HONEYBOURNE", "Functional_Location": "10050", "Description": "HONEYBOURNE - GATE INN (SPS)", "District": "EVESHAM", "Longitude": "-1.8336597", "Y": "244079", "Postal_Code": "WR11 7PQ", "Ownership": "STW FLOC", "Latitude": "52.092509", "X": "411654", "Street_Housenumber": "WESTON ROAD"}, {"City": "HONEYBOURNE", "Functional_Location": "10051", "Description": "HONEYBOURNE (STW)", "District": "EVESHAM", "Longitude": "-1.8246835", "Y": "242441", "Postal_Code": "WR11 7QE", "Ownership": "STW FLOC", "Latitude": "52.077473", "X": "411958", "Street_Housenumber": "WESTON ROAD"}, {"City": "HALLWOOD GREEN", "Functional_Location": "10052", "Description": "LOWER STRENSHAM (STW)", "District": "STRENSHAM", "Longitude": "-2.1389021", "Y": "241103", "Postal_Code": "WR8 9BT", "Ownership": "STW FLOC", "Latitude": "52.071128", "X": "390461", "Street_Housenumber": "BOURNE ROAD"}, {"City": "LITTLEWORTH", "Functional_Location": "10053", "Description": "LITTLEWORTH (SPS)", "District": "WORCESTER", "Longitude": "-2.1690192", "Y": "250250", "Postal_Code": "WR5 2QF", "Ownership": "STW FLOC", "Latitude": "52.14954", "X": "388671", "Street_Housenumber": "ST JAMES CLOSE"}, {"City": "LOWER MOOR", "Functional_Location": "10055", "Description": "LOWER MOOR (STW)", "District": "PERSHORE", "Longitude": "-2.0339572", "Y": "246875", "Postal_Code": "WR10 2PL", "Ownership": "STW FLOC", "Latitude": "52.122452", "X": "397610", "Street_Housenumber": "BRIDGE LANE"}, {"City": "DEFFORD", "Functional_Location": "10056", "Description": "DEFFORD LODGE HILL (STW)", "District": "EVESHAM", "Longitude": "-2.1189867", "Y": "243917", "Postal_Code": "WR8 9AD", "Ownership": "STW FLOC", "Latitude": "52.092629", "X": "391917", "Street_Housenumber": "LODGE HILL"}, {"City": "MIDGLEY DENE", "Functional_Location": "10057", "Description": "BLACKMINSTER - BIRMINGHAM RD (TPS)", "District": "BLACKMINSTER", "Longitude": "-1.8966543", "Y": "244226", "Postal_Code": "WR11 7TD", "Ownership": "STW FLOC", "Latitude": "52.09998", "X": "407147", "Street_Housenumber": "BIRMINGHAM ROAD"}, {"City": "", "Functional_Location": "10058", "Description": "OFFENHAM - BOAT LANE (SPS)", "District": "OFFENHAM", "Longitude": "-1.9237899", "Y": "245837", "Postal_Code": "WR11 8RS", "Ownership": "STW FLOC", "Latitude": "52.110547", "X": "405275", "Street_Housenumber": "BOAT LANE"}, {"City": "PEBWORTH MIDDLESEX", "Functional_Location": "10059", "Description": "PEBWORTH MIDDLESEX (STW)", "District": "STRATFORD UPON AVON", "Longitude": "-1.8244174", "Y": "246770", "Postal_Code": "CV37 8XF", "Ownership": "STW FLOC", "Latitude": "52.119315", "X": "412083", "Street_Housenumber": ""}, {"City": "ALFRICK", "Functional_Location": "10060", "Description": "ALFRICK - STOCKS LANE (STW)", "District": "WORCESTER", "Longitude": "-2.3817971", "Y": "251700", "Postal_Code": "WR6 5HD", "Ownership": "STW FLOC", "Latitude": "52.163167", "X": "374100", "Street_Housenumber": "STOCKS LANE"}, {"City": "AYLTON", "Functional_Location": "10061", "Description": "AYLTON (STW)", "District": "LEDBURY", "Longitude": "-2.4948826", "Y": "237800", "Postal_Code": "HR8 2QF", "Ownership": "STW FLOC", "Latitude": "52.038308", "X": "366200", "Street_Housenumber": "COUNCIL HOUSES"}, {"City": "", "Functional_Location": "10062", "Description": "BIRTSMORTON - BIRTS STREET (SPS)", "District": "BIRTS STREET", "Longitude": "-2.3032554", "Y": "236611", "Postal_Code": "WR13 6AP", "Ownership": "STW FLOC", "Latitude": "52.026712", "X": "379283", "Street_Housenumber": "MILLERS COURT ROAD"}, {"City": "BOSBURY", "Functional_Location": "10063", "Description": "BOSBURY - COLD GREEN (STW)", "District": "LEDBURY", "Longitude": "-2.4646061", "Y": "242400", "Postal_Code": "HR8 1NJ", "Ownership": "STW FLOC", "Latitude": "52.080786", "X": "368500", "Street_Housenumber": "COLD GREEN"}, {"City": "", "Functional_Location": "10064", "Description": "BOSBURY - THE PADDLES (STW)", "District": "BOSBURY", "Longitude": "-2.4240552", "Y": "243800", "Postal_Code": "HR8 1JS", "Ownership": "STW FLOC", "Latitude": "52.090199", "X": "370900", "Street_Housenumber": "PADDLES LANE"}, {"City": "BOSBURY", "Functional_Location": "10065", "Description": "BOSBURY RBC (STW)", "District": "HEREFORD", "Longitude": "-2.4453764", "Y": "243100", "Postal_Code": "HR8 1PY", "Ownership": "STW FLOC", "Latitude": "52.084043", "X": "369500", "Street_Housenumber": ""}, {"City": "", "Functional_Location": "10066", "Description": "ELDERSFIELD-BRIDGE END (STW)", "District": "ELDERSFIELD", "Longitude": "-2.2858668", "Y": "231700", "Postal_Code": "GL19 4NR", "Ownership": "STW FLOC", "Latitude": "51.983186", "X": "380400", "Street_Housenumber": "BRIDGE END"}, {"City": "", "Functional_Location": "10067", "Description": "BROMSBERROW-HIGH STREET (TPS)", "District": "BROMSBERROW HEATH", "Longitude": "-2.3907657", "Y": "233000", "Postal_Code": "HR8 1PQ", "Ownership": "STW FLOC", "Latitude": "51.995301", "X": "373135", "Street_Housenumber": "HIGH STREET"}, {"City": "", "Functional_Location": "10068", "Description": "BROUGHTON HACKETT (STW)", "District": "BROUGHTON HACKETT", "Longitude": "-2.1145128", "Y": "254346", "Postal_Code": "WR7 4BQ", "Ownership": "STW FLOC", "Latitude": "52.186359", "X": "392371", "Street_Housenumber": "OFF A422"}, {"City": "BUSHLEY", "Functional_Location": "10069", "Description": "BUSHLEY CROFT FIELDS (STW)", "District": "TEWKESBURY", "Longitude": "-2.1869751", "Y": "234500", "Postal_Code": "GL20 6HX", "Ownership": "STW FLOC", "Latitude": "52.008676", "X": "387300", "Street_Housenumber": ""}, {"City": "CASTLEMORTON", "Functional_Location": "10070", "Description": "CASTLEMORTON (STW)", "District": "MALVERN", "Longitude": "-2.3014749", "Y": "237060", "Postal_Code": "WR13 6BG", "Ownership": "STW FLOC", "Latitude": "52.032866", "X": "379355", "Street_Housenumber": "ADJ CASTLEMORTON CHURCH"}, {"City": "CALLOW END", "Functional_Location": "10071", "Description": "DEBLINS GREEN (STW)", "District": "WORCESTER", "Longitude": "-2.2643178", "Y": "249541", "Postal_Code": "WR2 4UE", "Ownership": "STW FLOC", "Latitude": "52.141301", "X": "381977", "Street_Housenumber": "DEBLINS GREEN"}, {"City": "", "Functional_Location": "10072", "Description": "EASTNOR (STW)", "District": "EASTNOR", "Longitude": "-2.3759675", "Y": "236600", "Postal_Code": "HR8 1ER", "Ownership": "STW FLOC", "Latitude": "52.028246", "X": "374200", "Street_Housenumber": "WAYEND STREET"}, {"City": "FROMES HILL", "Functional_Location": "10073", "Description": "FROMES HILL (STW)", "District": "HEREFORD", "Longitude": "-2.466467", "Y": "246600", "Postal_Code": "HR8 1HY", "Ownership": "STW FLOC", "Latitude": "52.116489", "X": "368100", "Street_Housenumber": "LEADON COURT FARM"}, {"City": "", "Functional_Location": "10074", "Description": "GILBERTS END (SPS)", "District": "UPTON UPON SEVERN", "Longitude": "-2.2499937", "Y": "242076", "Postal_Code": "WR8 0AR", "Ownership": "STW FLOC", "Latitude": "52.07535", "X": "383143", "Street_Housenumber": "GILBERTS END"}, {"City": "GUARLFORD", "Functional_Location": "10075", "Description": "GUARLFORD (STW)", "District": "MALVERN", "Longitude": "-2.2744391", "Y": "245040", "Postal_Code": "WR13 6PF", "Ownership": "STW FLOC", "Latitude": "52.104866", "X": "381475", "Street_Housenumber": "PENNY LANE"}, {"City": "", "Functional_Location": "10076", "Description": "MADRESFIELD RECTORY LANE (STW)", "District": "HARTPURY", "Longitude": "-2.2894839", "Y": "224700", "Postal_Code": "GL19 3BJ", "Ownership": "STW FLOC", "Latitude": "51.920907", "X": "380200", "Street_Housenumber": "OVER OLD ROAD"}, {"City": "MUCH MARCLE", "Functional_Location": "10077", "Description": "MUCH MARCLE OLD PIKE (STW)", "District": "HEREFORDSHIRE", "Longitude": "-2.5247009", "Y": "232600", "Postal_Code": "HR8 2PH", "Ownership": "STW FLOC", "Latitude": "51.987686", "X": "364400", "Street_Housenumber": ""}, {"City": "", "Functional_Location": "10078", "Description": "MADRESFIELD COURT (STW)", "District": "MADRESFIELD", "Longitude": "-2.2874947", "Y": "247900", "Postal_Code": "WR13 5AA", "Ownership": "STW FLOC", "Latitude": "52.125738", "X": "381000", "Street_Housenumber": "CEDAR AVENUE"}, {"City": "", "Functional_Location": "10079", "Description": "PARK LANE (STW)", "District": "COLWALL", "Longitude": "-2.3473234", "Y": "244800", "Postal_Code": "WR14 4DL", "Ownership": "STW FLOC", "Latitude": "52.101068", "X": "376300", "Street_Housenumber": "PARK LANE"}, {"City": "PENDOCK", "Functional_Location": "10080", "Description": "PENDOCK (STW)", "District": "STAUNTON", "Longitude": "-2.3087843", "Y": "233300", "Postal_Code": "GL19 3PP", "Ownership": "STW FLOC", "Latitude": "51.997837", "X": "378900", "Street_Housenumber": "NETHERLEY LANE"}, {"City": "PUTLEY GREEN", "Functional_Location": "10081", "Description": "PUTLEY GREEN (STW)", "District": "LEDBURY", "Longitude": "-2.5090056", "Y": "237381", "Postal_Code": "HR8 2QU", "Ownership": "STW FLOC", "Latitude": "52.03413", "X": "365162", "Street_Housenumber": "NEAR GREEN CLOSE"}, {"City": "RIPPLE", "Functional_Location": "10082", "Description": "RIPPLE WORKS (STW)", "District": "TEWKESBURY", "Longitude": "-2.1816623", "Y": "237900", "Postal_Code": "GL20 6HA", "Ownership": "STW FLOC", "Latitude": "52.038614", "X": "387600", "Street_Housenumber": "BOW LANE"}, {"City": "", "Functional_Location": "10083", "Description": "SNEACHILL (STW)", "District": "SNEACHILL", "Longitude": "-2.1336741", "Y": "253343", "Postal_Code": "WR7 4QS", "Ownership": "STW FLOC", "Latitude": "52.176647", "X": "390559", "Street_Housenumber": "OFF EVESHAM ROAD"}, {"City": "", "Functional_Location": "10084", "Description": "UPTON SNODSBURY (STW)", "District": "UPTON SNODSBURY", "Longitude": "-2.0831526", "Y": "253900", "Postal_Code": "WR7 4NR", "Ownership": "STW FLOC", "Latitude": "52.186313", "X": "394800", "Street_Housenumber": "PERSHORE ROAD"}, {"City": "", "Functional_Location": "10085", "Description": "WALLERS GREEN (STW)", "District": "LEDBURY", "Longitude": "-2.4590377", "Y": "239132", "Postal_Code": "HR8 2PX", "Ownership": "STW FLOC", "Latitude": "52.050087", "X": "367726", "Street_Housenumber": "COUNCIL HOUSES WALLERS GREEN ST"}, {"City": "", "Functional_Location": "10086", "Description": "WHITBOURNE - COURT (TPS)", "District": "WHITBOURNE", "Longitude": "-2.4063305", "Y": "256899", "Postal_Code": "WR6 5RT", "Ownership": "STW FLOC", "Latitude": "52.211499", "X": "372416", "Street_Housenumber": "WHITBOURNE ROAD"}, {"City": "WHITBOURNE", "Functional_Location": "10087", "Description": "WHITBOURNE WORKS (STW)", "District": "WORCESTER", "Longitude": "-2.4073953", "Y": "256200", "Postal_Code": "WR6 5RB", "Ownership": "STW FLOC", "Latitude": "52.201516", "X": "372500", "Street_Housenumber": ""}, {"City": "WHITTINGTON", "Functional_Location": "10088", "Description": "WHITTINGTON NR MOTORWAY (STW)", "District": "WORCESTER", "Longitude": "-2.1763913", "Y": "253100", "Postal_Code": "WR5 2RF", "Ownership": "STW FLOC", "Latitude": "52.176951", "X": "388200", "Street_Housenumber": "CHURCH LANE"}, {"City": "", "Functional_Location": "10089", "Description": "WHITTINGTON MEB (STW)", "District": "WHITTINGTON", "Longitude": "-2.1876905", "Y": "252900", "Postal_Code": "WR5 2RY", "Ownership": "STW FLOC", "Latitude": "52.175764", "X": "387000", "Street_Housenumber": "OFF A44"}, {"City": "", "Functional_Location": "10090", "Description": "WICHENFORD - ABINGDON (TPS)", "District": "WICHENFORD", "Longitude": "-2.3154348", "Y": "259754", "Postal_Code": "WR6 6XY", "Ownership": "STW FLOC", "Latitude": "52.236815", "X": "378022", "Street_Housenumber": "VENN LANE"}, {"City": "ALFRICK", "Functional_Location": "10091", "Description": "ALFRICK - CLAY GREEN (STW)", "District": "WORCESTER", "Longitude": "-2.3690285", "Y": "253400", "Postal_Code": "WR6 5HX", "Ownership": "STW FLOC", "Latitude": "52.176586", "X": "374800", "Street_Housenumber": "CLAY GREEN"}, {"City": "", "Functional_Location": "10092", "Description": "BAUGHTON (TPS)", "District": "BAUGHTON", "Longitude": "-2.1784015", "Y": "241945", "Postal_Code": "WR8 9DQ", "Ownership": "STW FLOC", "Latitude": "52.07638", "X": "387631", "Street_Housenumber": "ELMFIELD GROVE COTTAGE"}, {"City": "", "Functional_Location": "10093", "Description": "BOSBURY - OFF B4220 (TPS)", "District": "BOSBURY", "Longitude": "-2.4462174", "Y": "243319", "Postal_Code": "HR8 1PX", "Ownership": "STW FLOC", "Latitude": "52.087888", "X": "369602", "Street_Housenumber": "B4220 BOSBURY"}, {"City": "BROMESBERROW", "Functional_Location": "10094", "Description": "BROMSBERROW (STW)", "District": "LEDBURY", "Longitude": "-2.3726332", "Y": "233305", "Postal_Code": "HR8 1RU", "Ownership": "STW FLOC", "Latitude": "52.000619", "X": "374288", "Street_Housenumber": "ALBRIGHT LANE"}, {"City": "COLWALL", "Functional_Location": "10095", "Description": "COLWALL (STW)", "District": "MALVERN", "Longitude": "-2.3831217", "Y": "242716", "Postal_Code": "WR13 6HE", "Ownership": "STW FLOC", "Latitude": "52.079083", "X": "374018", "Street_Housenumber": "MILL LANE"}, {"City": "CRADLEY", "Functional_Location": "10096", "Description": "CRADLEY (STW)", "District": "MALVERN", "Longitude": "-2.3885031", "Y": "248200", "Postal_Code": "WR13 5NN", "Ownership": "STW FLOC", "Latitude": "52.130788", "X": "373300", "Street_Housenumber": "TIFFORDS BRIDGE"}, {"City": "CROWLE", "Functional_Location": "10097", "Description": "CROWLE - WORCESTER (STW)", "District": "WORCESTER", "Longitude": "-2.1066387", "Y": "255739", "Postal_Code": "WR7 4AL", "Ownership": "STW FLOC", "Latitude": "52.202648", "X": "393413", "Street_Housenumber": "OFF FROXMERE ROAD"}, {"City": "FERNHILL HEATH", "Functional_Location": "10098", "Description": "FERNHILL HEATH - KENNELS LANE (TPS)", "District": "WORCESTER", "Longitude": "-2.1929243", "Y": "260051", "Postal_Code": "WR3 7RZ", "Ownership": "STW FLOC", "Latitude": "52.23618", "X": "386915", "Street_Housenumber": "KENNELS LANE"}, {"City": "HALLOW", "Functional_Location": "10099", "Description": "HALLOW (STW)", "District": "WORCESTER", "Longitude": "-2.2536587", "Y": "257952", "Postal_Code": "WR2 6PW", "Ownership": "STW FLOC", "Latitude": "52.219721", "X": "382793", "Street_Housenumber": "OFF A443"}, {"City": "", "Functional_Location": "10100", "Description": "POWICK (STW)", "District": "POWICK", "Longitude": "-2.2461315", "Y": "250524", "Postal_Code": "WR2 4QZ", "Ownership": "STW FLOC", "Latitude": "52.158251", "X": "383502", "Street_Housenumber": "UPTON ROAD"}, {"City": "", "Functional_Location": "10101", "Description": "QUAY LANE (STW)", "District": "HANLEY CASTLE", "Longitude": "-2.230591", "Y": "241935", "Postal_Code": "WR8 0BS", "Ownership": "STW FLOC", "Latitude": "52.075911", "X": "384137", "Street_Housenumber": "QUAY LANE"}, {"City": "", "Functional_Location": "10102", "Description": "RIPPLE PS (TPS)", "District": "RIPPLE", "Longitude": "-2.183719", "Y": "237811", "Postal_Code": "GL20 6HQ", "Ownership": "STW FLOC", "Latitude": "52.038872", "X": "387488", "Street_Housenumber": "RECTORY LANE"}, {"City": "SEVERN STOKE", "Functional_Location": "10103", "Description": "SEVERN STOKE WKS (STW)", "District": "WORCESTERSHIRE", "Longitude": "-2.2091753", "Y": "244800", "Postal_Code": "WR8 9JJ", "Ownership": "STW FLOC", "Latitude": "52.098509", "X": "385600", "Street_Housenumber": ""}, {"City": "SEVERN STOKE", "Functional_Location": "10104", "Description": "SEVERN STOKE PS (TPS)", "District": "WORCESTER", "Longitude": "-2.2109377", "Y": "244075", "Postal_Code": "WR8 9JQ", "Ownership": "STW FLOC", "Latitude": "52.094568", "X": "385691", "Street_Housenumber": ""}, {"City": "SUCKLEY", "Functional_Location": "10105", "Description": "SUCKLEY (STW)", "District": "WORCESTER", "Longitude": "-2.4064175", "Y": "251442", "Postal_Code": "WR6 5EA", "Ownership": "STW FLOC", "Latitude": "52.160109", "X": "372325", "Street_Housenumber": "WOODLAND ROAD"}, {"City": "", "Functional_Location": "10106", "Description": "UPTON UPON SEVERN - NEW STREET (TPS)", "District": "UPTON UPON SEVERN", "Longitude": "-2.2184336", "Y": "240546", "Postal_Code": "WR8 0HP", "Ownership": "STW FLOC", "Latitude": "52.063303", "X": "385002", "Street_Housenumber": "NEW STREET"}, {"City": "WELLAND", "Functional_Location": "10107", "Description": "WELLAND (STW)", "District": "MALVERN", "Longitude": "-2.2736331", "Y": "239200", "Postal_Code": "WR8 0ST", "Ownership": "STW FLOC", "Latitude": "52.051931", "X": "380600", "Street_Housenumber": "NEAR MALT HOUSE FARM"}, {"City": "WICHENFORD", "Functional_Location": "10108", "Description": "WICHENFORD - QUEENS ESTATE (TPS)", "District": "WORCESTER", "Longitude": "-2.3104181", "Y": "260658", "Postal_Code": "WR6 6YQ", "Ownership": "STW FLOC", "Latitude": "52.243967", "X": "378967", "Street_Housenumber": ""}, {"City": "", "Functional_Location": "10109", "Description": "WORCESTER - BROMWICH ROAD (STW)", "District": "WORCESTER", "Longitude": "-2.2346367", "Y": "253530", "Postal_Code": "WR2 4BN", "Ownership": "STW FLOC", "Latitude": "52.173909", "X": "384361", "Street_Housenumber": "BROMWICH ROAD"}, {"City": "", "Functional_Location": "10110", "Description": "CLEVELODE - WHITE ACRES (STW)", "District": "CLEVELODE", "Longitude": "-2.2556765", "Y": "247000", "Postal_Code": "WR13 6PB", "Ownership": "STW FLOC", "Latitude": "52.122503", "X": "382600", "Street_Housenumber": ""}, {"City": "", "Functional_Location": "10111", "Description": "HOLLY GREEN WORKS (STW)", "District": "UPTON UPON SEVERN", "Longitude": "-2.2055143", "Y": "241400", "Postal_Code": "WR8 0PD", "Ownership": "STW FLOC", "Latitude": "52.067453", "X": "385700", "Street_Housenumber": "ADJ RAG HOUSE - HOLLY GREEN"}, {"City": "KEMPSEY", "Functional_Location": "10112", "Description": "KEMPSEY WORKS (STW)", "District": "WORCESTER", "Longitude": "-2.2213891", "Y": "248317", "Postal_Code": "WR5 3NH", "Ownership": "STW FLOC", "Latitude": "52.132866", "X": "384735", "Street_Housenumber": "PIXHAM FERRY LANE"}, {"City": "KNIGHTWICK", "Functional_Location": "10113", "Description": "KNIGHTWICK ALMSHOUSES (STW)", "District": "WORCESTER", "Longitude": "-2.3911183", "Y": "256100", "Postal_Code": "WR6 5PJ", "Ownership": "STW FLOC", "Latitude": "52.20247", "X": "373300", "Street_Housenumber": "ALMSHOUSES"}, {"City": "", "Functional_Location": "10114", "Description": "LONGDON PS (TPS)", "District": "TEWKESBURY", "Longitude": "-2.2383882", "Y": "236400", "Postal_Code": "GL20 6AX", "Ownership": "STW FLOC", "Latitude": "52.030457", "X": "384000", "Street_Housenumber": ""}, {"City": "LULSLEY", "Functional_Location": "10115", "Description": "LULSLEY GRESWOLD (STW)", "District": "WORCESTER", "Longitude": "-2.3827908", "Y": "254700", "Postal_Code": "WR6 5QU", "Ownership": "STW FLOC", "Latitude": "52.19036", "X": "373900", "Street_Housenumber": "1 - 5 GRESWOLD"}, {"City": "MADRESFIELD", "Functional_Location": "10116", "Description": "MADRESFIELD - HALL GREEN (TPS)", "District": "MALVERN", "Longitude": "-2.2867054", "Y": "246106", "Postal_Code": "WR14 3QZ", "Ownership": "STW FLOC", "Latitude": "52.109737", "X": "380277", "Street_Housenumber": "HALL GREEN"}, {"City": "", "Functional_Location": "10117", "Description": "MADRESFIELD NORTH END (STW)", "District": "MADRESFIELD", "Longitude": "-2.2932233", "Y": "247200", "Postal_Code": "WR13 5AB", "Ownership": "STW FLOC", "Latitude": "52.123917", "X": "379698", "Street_Housenumber": "NORTH END LANE"}, {"City": "", "Functional_Location": "10118", "Description": "MADRESFIELD WATERLOO CLOS (STW)", "District": "MADRESFIELD", "Longitude": "-2.2917856", "Y": "248128", "Postal_Code": "WR13 5AG", "Ownership": "STW FLOC", "Latitude": "52.129665", "X": "380196", "Street_Housenumber": "WATERLOO CLOSE"}, {"City": "MATHON", "Functional_Location": "10119", "Description": "MATHON (STW)", "District": "HEREFORDSHIRE", "Longitude": "-2.3887446", "Y": "245800", "Postal_Code": "WR13 5PW", "Ownership": "STW FLOC", "Latitude": "52.109876", "X": "373598", "Street_Housenumber": ""}, {"City": "RUSHWICK GREEN", "Functional_Location": "10120", "Description": "RUSHWICK GREEN (CROWN EAST) (STW)", "District": "WORCESTER", "Longitude": "-2.2757041", "Y": "254980", "Postal_Code": "WR2 5TU", "Ownership": "STW FLOC", "Latitude": "52.191486", "X": "381346", "Street_Housenumber": "1 - 4 CROWN EAST LANE"}, {"City": "", "Functional_Location": "10121", "Description": "WEST MALVERN (STW)", "District": "WEST MALVERN", "Longitude": "-2.3615252", "Y": "245920", "Postal_Code": "WR14 4DX", "Ownership": "STW FLOC", "Latitude": "52.109711", "X": "375611", "Street_Housenumber": "ADJ CROFT FARM"}, {"City": "", "Functional_Location": "10122", "Description": "ASHPERTON (STW)", "District": "ASHPERTON", "Longitude": "-2.5136546", "Y": "241600", "Postal_Code": "HR8 2SB", "Ownership": "STW FLOC", "Latitude": "52.072167", "X": "364700", "Street_Housenumber": "HEYWOOD LANE"}, {"City": "", "Functional_Location": "10123", "Description": "BROMSBERROW BROWNS END (STW)", "District": "BROMSBERROW", "Longitude": "-2.3670684", "Y": "233900", "Postal_Code": "HR8 1RX", "Ownership": "STW FLOC", "Latitude": "52.004116", "X": "374900", "Street_Housenumber": "ALBRIGHT LANE"}, {"City": "", "Functional_Location": "10124", "Description": "BUSHLEY GREEN (STW)", "District": "BUSHLEY", "Longitude": "-2.2021388", "Y": "234700", "Postal_Code": "GL20 6JB", "Ownership": "STW FLOC", "Latitude": "52.01133", "X": "386300", "Street_Housenumber": "BUSHLEY GREEN"}, {"City": "KNIGHTWICK", "Functional_Location": "10125", "Description": "DARBYS GREEN (STW)", "District": "WORCESTER", "Longitude": "-2.3797934", "Y": "256300", "Postal_Code": "WR6 5PX", "Ownership": "STW FLOC", "Latitude": "52.204251", "X": "374200", "Street_Housenumber": "DARBYS GREEN"}, {"City": "DUCKSWICH", "Functional_Location": "10126", "Description": "DUCKSWICH (STW)", "District": "WELLAND ROAD", "Longitude": "-2.242186", "Y": "239700", "Postal_Code": "WR8 0SN", "Ownership": "STW FLOC", "Latitude": "52.05619", "X": "383400", "Street_Housenumber": "WELLAND ROAD"}, {"City": "", "Functional_Location": "10127", "Description": "EVESBATCH (STW)", "District": "EVESBATCH", "Longitude": "-2.4561324", "Y": "248200", "Postal_Code": "WR6 5BE", "Ownership": "STW FLOC", "Latitude": "52.131292", "X": "368900", "Street_Housenumber": "GREEN LANE"}, {"City": "", "Functional_Location": "10128", "Description": "FALCON LANE (STW)", "District": "AYLTON", "Longitude": "-2.4708598", "Y": "238600", "Postal_Code": "HR8 2JP", "Ownership": "STW FLOC", "Latitude": "52.045518", "X": "367800", "Street_Housenumber": "FALCON LANE"}, {"City": "", "Functional_Location": "10129", "Description": "KEMPSEY - MAIN ROAD (SPS)", "District": "KEMPSEY", "Longitude": "-2.2172163", "Y": "249126", "Postal_Code": "WR5 3JF", "Ownership": "STW FLOC", "Latitude": "52.139976", "X": "385239", "Street_Housenumber": "MAIN ROAD"}, {"City": "KERSWELL GREEN", "Functional_Location": "10130", "Description": "KERSWELL GREEN (STW)", "District": "WORCESTER", "Longitude": "-2.2040635", "Y": "246456", "Postal_Code": "WR5 3PF", "Ownership": "STW FLOC", "Latitude": "52.117137", "X": "386237", "Street_Housenumber": ""}, {"City": "KNIGHTWICK", "Functional_Location": "10131", "Description": "KNIGHTWICK-HIGHFIELDS (STW)", "District": "WORCESTER", "Longitude": "-2.4021097", "Y": "254100", "Postal_Code": "WR6 5QG", "Ownership": "STW FLOC", "Latitude": "52.184938", "X": "372499", "Street_Housenumber": "HIGHFIELDS BUNGALOW KNIGHTWICK"}, {"City": "", "Functional_Location": "10132", "Description": "LITTLE MARCLE SCHOOL (STW)", "District": "LEDBURY", "Longitude": "-2.4816103", "Y": "236484", "Postal_Code": "HR8 2JZ", "Ownership": "STW FLOC", "Latitude": "52.025578", "X": "367046", "Street_Housenumber": "LITTLE MARCLE COURT ROAD"}, {"City": "", "Functional_Location": "10133", "Description": "LEDBURY - FULL PITCHER (TPS)", "District": "LEDBURY", "Longitude": "-2.4332341", "Y": "236851", "Postal_Code": "HR8 2EL", "Ownership": "STW FLOC", "Latitude": "52.031259", "X": "370303", "Street_Housenumber": "FULL PITCHER"}, {"City": "", "Functional_Location": "10134", "Description": "LEDBURY (STW)", "District": "LEDBURY", "Longitude": "149.124", "Y": "237210", "Postal_Code": "H28 2DP", "Ownership": "STW FLOC", "Latitude": "-35.308", "X": "370235", "Street_Housenumber": "LITTLE MARCLE LANE"}, {"City": "LONGDON", "Functional_Location": "10135", "Description": "LONGDON WORKS (STW)", "District": "TEWKESBURY", "Longitude": "-2.2382247", "Y": "236207", "Postal_Code": "GL20 6AT", "Ownership": "STW FLOC", "Latitude": "52.024371", "X": "383916", "Street_Housenumber": ""}, {"City": "", "Functional_Location": "10136", "Description": "LITTLE MARCLE RD LEDBURY (TPS)", "District": "LEDBURY", "Longitude": "-2.4357369", "Y": "237261", "Postal_Code": "HR8 2DN", "Ownership": "STW FLOC", "Latitude": "52.033812", "X": "370040", "Street_Housenumber": "LITTLE MARCLE ROAD"}, {"City": "MUCH MARCLE", "Functional_Location": "10137", "Description": "MUCH MARCLE HAZERDINE (STW)", "District": "HEREFORDSHIRE", "Longitude": "-2.5200675", "Y": "233000", "Postal_Code": "HR8 2NX", "Ownership": "STW FLOC", "Latitude": "51.994998", "X": "364400", "Street_Housenumber": ""}, {"City": "MUCH MARCLE", "Functional_Location": "10138", "Description": "MUCH MARCLE RUSHALL (STW)", "District": "HEREFORDSHIRE", "Longitude": "-2.5238408", "Y": "234900", "Postal_Code": "HR8 2PA", "Ownership": "STW FLOC", "Latitude": "52.010059", "X": "364100", "Street_Housenumber": ""}, {"City": "BARNARDS GREEN", "Functional_Location": "10139", "Description": "MALVERN (STW)", "District": "MALVERN", "Longitude": "-2.2977815", "Y": "244930", "Postal_Code": "WR14 3QS", "Ownership": "STW FLOC", "Latitude": "52.102157", "X": "379693", "Street_Housenumber": "MILL LANE"}, {"City": "", "Functional_Location": "10140", "Description": "MARTLEY-DUCTONS COPP (STW)", "District": "MARTLEY", "Longitude": "-2.3588006", "Y": "259642", "Postal_Code": "WR6 6QE", "Ownership": "STW FLOC", "Latitude": "52.233949", "X": "375968", "Street_Housenumber": "HOPEHOUSE LANE"}, {"City": "KYNASTON", "Functional_Location": "10141", "Description": "MUCH MARCLE KYNASTON (STW)", "District": "HEREFORDSHIRE", "Longitude": "-2.522134", "Y": "235900", "Postal_Code": "HR8 2PD", "Ownership": "STW FLOC", "Latitude": "52.021126", "X": "364400", "Street_Housenumber": ""}, {"City": "", "Functional_Location": "10142", "Description": "MUCH MARCLE WATERY LANE (STW)", "District": "MUCH MARCLE", "Longitude": "-2.5096302", "Y": "233300", "Postal_Code": "HR8 2NG", "Ownership": "STW FLOC", "Latitude": "51.99677", "X": "365000", "Street_Housenumber": "WATERY LANE"}, {"City": "", "Functional_Location": "10143", "Description": "UPTON-ON-SEVERN WKS (STW)", "District": "UPTON ON SEVERN", "Longitude": "-2.2188713", "Y": "240590", "Postal_Code": "WR8 0JJ", "Ownership": "STW FLOC", "Latitude": "52.063329", "X": "384423", "Street_Housenumber": "CUT THROAT LANE"}, {"City": "", "Functional_Location": "10144", "Description": "WICHENFORD - BOXLEY COTTAGES (STW)", "District": "MARTLEY", "Longitude": "-2.3366218", "Y": "258900", "Postal_Code": "WR6 6YB", "Ownership": "STW FLOC", "Latitude": "52.226849", "X": "377200", "Street_Housenumber": "WILLOW ROAD"}, {"City": "TIBBERTON", "Functional_Location": "10145", "Description": "TIBBERTON - PLOUGH ROAD (SPS)", "District": "DROITWICH", "Longitude": "-2.1383713", "Y": "258015", "Postal_Code": "WR9 7NQ", "Ownership": "STW FLOC", "Latitude": "52.219912", "X": "390864", "Street_Housenumber": "PLOUGH ROAD"}, {"City": "ADJ 1 - 4 COUNCIL HOUSES", "Functional_Location": "10146", "Description": "LUSLEY RBC - COUNCIL HOUSES (STW)", "District": "WORCESTER", "Longitude": "-2.3825675", "Y": "254300", "Postal_Code": "WR6 5QS", "Ownership": "STW FLOC", "Latitude": "52.186504", "X": "373896", "Street_Housenumber": "LULSLEY COUNCIL HOUSES"}, {"City": "", "Functional_Location": "10147", "Description": "ARROW - ALCESTER ROAD (TPS)", "District": "ARROW", "Longitude": "-1.8836446", "Y": "256676", "Postal_Code": "B49 5PJ", "Ownership": "STW FLOC", "Latitude": "52.207638", "X": "408240", "Street_Housenumber": "ARROW GRANGE"}, {"City": "ASTWOOD BANK", "Functional_Location": "10148", "Description": "ASTWOOD BANK (STW)", "District": "REDDITCH", "Longitude": "-1.9439896", "Y": "262233", "Postal_Code": "B96 6AS", "Ownership": "STW FLOC", "Latitude": "52.258567", "X": "403538", "Street_Housenumber": "DARK LANE"}, {"City": "DUNNINGTON", "Functional_Location": "10149", "Description": "DUNNINGTON (STW)", "District": "WARWICKSHIRE", "Longitude": "-1.9023137", "Y": "252889", "Postal_Code": "B49 5NY", "Ownership": "STW FLOC", "Latitude": "52.175919", "X": "406861", "Street_Housenumber": ""}, {"City": "ABBOTS MORTON", "Functional_Location": "10150", "Description": "ABBOTTS MORTON (STW)", "District": "WORCESTERSHIRE", "Longitude": "-1.9583337", "Y": "255189", "Postal_Code": "WR7 4NA", "Ownership": "STW FLOC", "Latitude": "52.1944", "X": "403289", "Street_Housenumber": ""}, {"City": "ALCESTER", "Functional_Location": "10151", "Description": "ALCESTER (STW)", "District": "STRATFORD", "Longitude": "-1.8655086", "Y": "256643", "Postal_Code": "B49 6LQ", "Ownership": "STW FLOC", "Latitude": "52.209147", "X": "408993", "Street_Housenumber": "OVERSLEY GREEN OR MILL LANE"}, {"City": "LYE BRIDGE", "Functional_Location": "10152", "Description": "ALVECHURCH (STW)", "District": "ALVECHURCH", "Longitude": "-1.9540704", "Y": "271585", "Postal_Code": "B48 7RT", "Ownership": "STW FLOC", "Latitude": "52.342999", "X": "403172", "Street_Housenumber": "REDDITCH ROAD"}, {"City": "", "Functional_Location": "10153", "Description": "BIDFORD-ON-AVON - THE PLECK (SPS)", "District": "BIDFORD-ON-AVON", "Longitude": "-1.8609971", "Y": "251711", "Postal_Code": "B50 4BB", "Ownership": "STW FLOC", "Latitude": "52.16348", "X": "409594", "Street_Housenumber": "THE PLECK"}, {"City": "BIDFORD-ON-AVON", "Functional_Location": "10154", "Description": "BIDFORD-ON-AVON (STW)", "District": "BIDFORD ON AVON", "Longitude": "-1.8776021", "Y": "251407", "Postal_Code": "B50 4EX", "Ownership": "STW FLOC", "Latitude": "52.16446", "X": "408408", "Street_Housenumber": "MARRIAGE LANE"}, {"City": "WORCESTERSHIRE", "Functional_Location": "10155", "Description": "BROMSGROVE (STW)", "District": "BROMSGROVE", "Longitude": "-2.0607176", "Y": "268777", "Postal_Code": "B60 3EX", "Ownership": "STW FLOC", "Latitude": "52.31648", "X": "395888", "Street_Housenumber": "ASTON ROAD"}, {"City": "CHURCH LENCH", "Functional_Location": "10156", "Description": "CHURCH LENCH (STW)", "District": "EVESHAM", "Longitude": "-1.9598135", "Y": "251626", "Postal_Code": "WR11 4UG", "Ownership": "STW FLOC", "Latitude": "52.159302", "X": "403303", "Street_Housenumber": "NR NORTH FARM OFF ATCH LENCH ROAD"}, {"City": "", "Functional_Location": "10157", "Description": "WEBHEATH - CRUMPFIELDS LANE (SPS)", "District": "REDDITCH", "Longitude": "-1.9803387", "Y": "265815", "Postal_Code": "B97 5PW", "Ownership": "STW FLOC", "Latitude": "52.29018", "X": "401407", "Street_Housenumber": "CRUMPFIELDS LANE"}, {"City": "CUTNALL GREEN", "Functional_Location": "10158", "Description": "CUTNALL GREEN (SPS)", "District": "DROITWICH", "Longitude": "-2.180789", "Y": "267366", "Postal_Code": "WR9 0QD", "Ownership": "STW FLOC", "Latitude": "52.305506", "X": "387572", "Street_Housenumber": "HORTON LANE"}, {"City": "", "Functional_Location": "10159", "Description": "ALCESTER - FAIRWATER CRESCENT (TPS)", "District": "ALCESTER", "Longitude": "-1.8626458", "Y": "257600", "Postal_Code": "B49 6PR", "Ownership": "STW FLOC", "Latitude": "52.216876", "X": "409500", "Street_Housenumber": "FAIRWATER CRESCENT"}, {"City": "WEBB HEATH", "Functional_Location": "10160", "Description": "REDDITCH - FOXLYDIATE LANE (SPS)", "District": "REDDITCH", "Longitude": "-1.9777966", "Y": "266947", "Postal_Code": "B97 5PB", "Ownership": "STW FLOC", "Latitude": "52.301777", "X": "401512", "Street_Housenumber": "FOXLYDIATE LANE"}, {"City": "HARVINGTON", "Functional_Location": "10161", "Description": "HARVINGTON (STW)", "District": "EVESHAM", "Longitude": "-1.9089823", "Y": "248897", "Postal_Code": "WR11 8PA", "Ownership": "STW FLOC", "Latitude": "52.132635", "X": "406100", "Street_Housenumber": "ANCHOR LANE"}, {"City": "HARVINGTON", "Functional_Location": "10162", "Description": "HARVINGTON - ANCHOR LANE (TPS)", "District": "HARVINGTON", "Longitude": "-1.9138969", "Y": "248747", "Postal_Code": "WR11 8NR", "Ownership": "STW FLOC", "Latitude": "52.137161", "X": "406064", "Street_Housenumber": "ANCHOR LANE"}, {"City": "FECKENHAM", "Functional_Location": "10163", "Description": "PRIEST BRIDGE (STW)", "District": "REDDITCH", "Longitude": "-2.0188903", "Y": "259830", "Postal_Code": "B96 6SN", "Ownership": "STW FLOC", "Latitude": "52.239744", "X": "399039", "Street_Housenumber": "BRADLEY GREEN"}, {"City": "WYCHBOLD", "Functional_Location": "10164", "Description": "WYCHBOLD (STW)", "District": "DROITWICH", "Longitude": "-2.1229167", "Y": "266165", "Postal_Code": "WR9 0DH", "Ownership": "STW FLOC", "Latitude": "52.289775", "X": "391462", "Street_Housenumber": "WALK MILL DRIVE"}, {"City": "FLYFORD FLAVEL", "Functional_Location": "10165", "Description": "FLYFORD FLAVELL STW (STW)", "District": "ABBERTON ROAD", "Longitude": "-2.0282886", "Y": "254300", "Postal_Code": "WR7 4BU", "Ownership": "STW FLOC", "Latitude": "52.188668", "X": "398300", "Street_Housenumber": "GLEBE FARM A422 ROAD"}, {"City": "INKBERROW", "Functional_Location": "10166", "Description": "INKBERROW (STW)", "District": "WORCESTER", "Longitude": "-1.974931", "Y": "256288", "Postal_Code": "WR7 4HZ", "Ownership": "STW FLOC", "Latitude": "52.207477", "X": "401975", "Street_Housenumber": "APPLETREE LANE"}, {"City": "KINGTON", "Functional_Location": "10167", "Description": "KINGTON (STW)", "District": "FLYFORD FLAVEL", "Longitude": "-2.0296283", "Y": "256049", "Postal_Code": "WR7 4DD", "Ownership": "STW FLOC", "Latitude": "52.201479", "X": "398314", "Street_Housenumber": ""}, {"City": "", "Functional_Location": "10168", "Description": "REDDITCH - SPERNAL (STW)", "District": "STUDLEY", "Longitude": "-1.8822994", "Y": "262731", "Postal_Code": "B80 7EU", "Ownership": "STW FLOC", "Latitude": "52.262693", "X": "408300", "Street_Housenumber": "SPERNAL LANE"}, {"City": "", "Functional_Location": "10169", "Description": "OVERSLEY GREEN BOOSTER (DBS)", "District": "ALCESTER", "Longitude": "-1.8302761", "Y": "256774", "Postal_Code": "B49 6NW", "Ownership": "STW FLOC", "Latitude": "52.207286", "X": "411103", "Street_Housenumber": "TRENCH LANE/ STRATFORD ROAD"}, {"City": "HANBURY", "Functional_Location": "10170", "Description": "HANBURY (STAFFORDSHIRE) (STW)", "District": "BURTON ON TRENT", "Longitude": "-1.7435102", "Y": "328156", "Postal_Code": "DE13 8TD", "Ownership": "STW FLOC", "Latitude": "52.848469", "X": "417544", "Street_Housenumber": "HANBURY HILL"}, {"City": "", "Functional_Location": "10171", "Description": "ALCESTER - STRATFORD ROAD (SPS)", "District": "ALCESTER", "Longitude": "-1.8700769", "Y": "257202", "Postal_Code": "B49 5AU", "Ownership": "STW FLOC", "Latitude": "52.213369", "X": "409123", "Street_Housenumber": "STRATFORD ROAD"}, {"City": "", "Functional_Location": "10172", "Description": "SALFORD PRIORS (TPS)", "District": "EVESHAM", "Longitude": "-1.8912679", "Y": "251221", "Postal_Code": "WR11 8XE", "Ownership": "STW FLOC", "Latitude": "52.159942", "X": "407895", "Street_Housenumber": "SALFORD PRIORS STATN APPROACH"}, {"City": "STOKE PRIOR", "Functional_Location": "10173", "Description": "STOKE PRIOR (STW)", "District": "DROITWICH", "Longitude": "-2.085282", "Y": "266587", "Postal_Code": "B60 4EF", "Ownership": "STW FLOC", "Latitude": "52.29736", "X": "393950", "Street_Housenumber": "DODDERHILL"}, {"City": "ROUS LENCH", "Functional_Location": "10174", "Description": "ROUS LENCH (STW)", "District": "EVESHAM", "Longitude": "-1.9855923", "Y": "253862", "Postal_Code": "WR11 4UL", "Ownership": "STW FLOC", "Latitude": "52.182791", "X": "400982", "Street_Housenumber": "RADFORD ROAD"}, {"City": "", "Functional_Location": "10175", "Description": "OVERSLEY GREEN (TPS)", "District": "OVERSLEY GREEN", "Longitude": "-1.8630294", "Y": "256978", "Postal_Code": "B49 6PH", "Ownership": "STW FLOC", "Latitude": "52.211122", "X": "409367", "Street_Housenumber": "STRATFORD ROAD"}, {"City": "RIDGEWAY", "Functional_Location": "10176", "Description": "RIDGEWAY (STW)", "District": "INKBERROW - WORCESTER", "Longitude": "-1.9453666", "Y": "258500", "Postal_Code": "WR7 4HS", "Ownership": "STW FLOC", "Latitude": "52.222777", "X": "403800", "Street_Housenumber": "MEARSE FARM LANE"}, {"City": "WORCESTERSHIRE", "Functional_Location": "10177", "Description": "ABBERLEY SUFFOLK LANE (STW)", "District": "ABBERLEY", "Longitude": "-2.3700717", "Y": "268100", "Postal_Code": "WR6 6BE", "Ownership": "STW FLOC", "Latitude": "52.310881", "X": "374800", "Street_Housenumber": "SUFFOLK LANE"}, {"City": "UPPER ARLEY", "Functional_Location": "10178", "Description": "UPPER ARLEY (STW)", "District": "SHATTERFORD - BEWDLEY", "Longitude": "-2.3407954", "Y": "280100", "Postal_Code": "DY12 1XJ", "Ownership": "STW FLOC", "Latitude": "52.417808", "X": "376800", "Street_Housenumber": "ARLEY LANE"}, {"City": "", "Functional_Location": "10179", "Description": "BELBROUGHTON - DRAYTON ROAD (TPS)", "District": "BELBROUGHTON", "Longitude": "-2.1232568", "Y": "276937", "Postal_Code": "DY9 0DX", "Ownership": "STW FLOC", "Latitude": "52.390914", "X": "391646", "Street_Housenumber": "DRAYTON ROAD"}, {"City": "LOWER SAPEY", "Functional_Location": "10180", "Description": "CLIFTON-UPON-TEME (STW)", "District": "CLIFTON", "Longitude": "-2.4248132", "Y": "261465", "Postal_Code": "WR6 6LU", "Ownership": "STW FLOC", "Latitude": "52.251189", "X": "371019", "Street_Housenumber": "HOPE LANE"}, {"City": "GREAT WITLEY", "Functional_Location": "10181", "Description": "GREAT WITLEY (STW)", "District": "WORCESTER", "Longitude": "-2.3533775", "Y": "266299", "Postal_Code": "WR6 6HZ", "Ownership": "STW FLOC", "Latitude": "52.294066", "X": "376225", "Street_Housenumber": "OPP MILL COTTAGE - STOURPORT ROAD"}, {"City": "HARTLEBURY", "Functional_Location": "10182", "Description": "HARTLEBURY - PARK FARM (TPS)", "District": "KIDDERMINSTER", "Longitude": "-2.2459379", "Y": "271956", "Postal_Code": "DY11 7YE", "Ownership": "STW FLOC", "Latitude": "52.337555", "X": "383654", "Street_Housenumber": "HARTLEBURY PARK FARM CHARLTON LANE"}, {"City": "KINGSWOOD - STANFORD BRIDGE", "Functional_Location": "10183", "Description": "SHELSLEY BEAUCHAMP (STW)", "District": "WORCESTER", "Longitude": "-2.3964444", "Y": "262736", "Postal_Code": "WR6 6RA", "Ownership": "STW FLOC", "Latitude": "52.264881", "X": "373096", "Street_Housenumber": "SHELSLEY WILDERNESS COTTAGE"}, {"City": "WORCESTERSHIRE", "Functional_Location": "10184", "Description": "SHELSLEY-STNFRD BUNGALOW (STW)", "District": "SHELSLEY", "Longitude": "-2.4122522", "Y": "265500", "Postal_Code": "WR6 6RX", "Ownership": "STW FLOC", "Latitude": "52.286701", "X": "371900", "Street_Housenumber": "SHELSLEY VILLAGE"}, {"City": "WORCESTERSHIRE", "Functional_Location": "10185", "Description": "SHELSLEY-WILDERNESS COT (STW)", "District": "SHELSEY KINGS", "Longitude": "-2.3922527", "Y": "265600", "Postal_Code": "WR6 6SB", "Ownership": "STW FLOC", "Latitude": "52.286337", "X": "373400", "Street_Housenumber": "SHELSLEY VILLAGE"}, {"City": "WORCESTERSHIRE", "Functional_Location": "10186", "Description": "STOURPORT-WORCESTER RD (SPS)", "District": "STOURPORT", "Longitude": "-2.27167", "Y": "271370", "Postal_Code": "DY13 9BZ", "Ownership": "STW FLOC", "Latitude": "52.340546", "X": "381584", "Street_Housenumber": "WORCESTER ROAD"}, {"City": "HEREFORDSHIRE", "Functional_Location": "10187", "Description": "TEDSTONE WAFRE (STW)", "District": "TEDSTONE DELAMERE", "Longitude": "-2.4705089", "Y": "259000", "Postal_Code": "HR7 4QF", "Ownership": "STW FLOC", "Latitude": "52.228369", "X": "367900", "Street_Housenumber": "DELAMERE ROAD"}, {"City": "HEREFORDSHIRE", "Functional_Location": "10188", "Description": "UPPER SAPEY (STW)", "District": "UPPER SAPEY", "Longitude": "-2.4636546", "Y": "263308", "Postal_Code": "WR6 6XP", "Ownership": "STW FLOC", "Latitude": "52.267459", "X": "368486", "Street_Housenumber": "ORCHARD GARDENS"}, {"City": "", "Functional_Location": "10189", "Description": "STOURPORT ON SEVERN - WILDEN LANE (TPS)", "District": "STOURPORT", "Longitude": "-2.2584118", "Y": "272750", "Postal_Code": "DY13 9JT", "Ownership": "STW FLOC", "Latitude": "52.352398", "X": "382492", "Street_Housenumber": "WILDEN LANE"}, {"City": "WORCESTERSHIRE", "Functional_Location": "10190", "Description": "ROCK - RECTORY LANE (STW)", "District": "ROCK", "Longitude": "-2.3963841", "Y": "271800", "Postal_Code": "DY14 9RR", "Ownership": "STW FLOC", "Latitude": "52.343475", "X": "373200", "Street_Housenumber": "RECTORY LANE"}, {"City": "", "Functional_Location": "10191", "Description": "ASTLEY - TERMINAL (TPS)", "District": "ASTLEY", "Longitude": "-2.2872806", "Y": "268732", "Postal_Code": "DY13 0SG", "Ownership": "STW FLOC", "Latitude": "52.316901", "X": "380413", "Street_Housenumber": "LONGMORE HILL"}, {"City": "ASTLEY BURF", "Functional_Location": "10192", "Description": "ASTLEY HAMPSTALL (STW)", "District": "STOURPORT ON SEVERN", "Longitude": "-2.2791617", "Y": "267808", "Postal_Code": "DY13 0SA", "Ownership": "STW FLOC", "Latitude": "52.311229", "X": "381227", "Street_Housenumber": "SEEDGREEN LANE"}, {"City": "BELBROUGHTON", "Functional_Location": "10193", "Description": "BELBROUGHTON WORKS (STW)", "District": "KIDDERMINSTER", "Longitude": "-2.1251509", "Y": "276778", "Postal_Code": "DY9 0DN", "Ownership": "STW FLOC", "Latitude": "52.390382", "X": "391276", "Street_Housenumber": "DRAYTON ROAD"}, {"City": "", "Functional_Location": "10194", "Description": "HAGLEY - MILESTONE DRIVE (SPS)", "District": "HAGLEY", "Longitude": "-2.1517817", "Y": "279897", "Postal_Code": "DY9 0GH", "Ownership": "STW FLOC", "Latitude": "52.41742", "X": "389717", "Street_Housenumber": "MILESTONE DRIVE"}, {"City": "", "Functional_Location": "10195", "Description": "ABBERLEY - COMMON ROAD (SPS)", "District": "ABBERLEY", "Longitude": "-2.3760411", "Y": "267558", "Postal_Code": "WR6 6BA", "Ownership": "STW FLOC", "Latitude": "52.305638", "X": "374390", "Street_Housenumber": "THE COMMON"}, {"City": "WORCESTERSHIRE", "Functional_Location": "10196", "Description": "ABBERLEY - THE COMMON (STW)", "District": "ABBERLEY", "Longitude": "-2.3764038", "Y": "267527", "Postal_Code": "WR6 6AY", "Ownership": "STW FLOC", "Latitude": "52.30517", "X": "374475", "Street_Housenumber": "THE COMMON"}, {"City": "", "Functional_Location": "10197", "Description": "UPPER ARLEY - ARLEY LANE (SPS)", "District": "UPPER ARLEY", "Longitude": "-2.3475586", "Y": "280234", "Postal_Code": "DY12 1XA", "Ownership": "STW FLOC", "Latitude": "52.41964", "X": "376513", "Street_Housenumber": "ARLEY LANE"}, {"City": "MARTLEY", "Functional_Location": "10198", "Description": "MARTLEY-PRICKLEY LANE (STW)", "District": "WORCESTER", "Longitude": "-2.3611484", "Y": "259630", "Postal_Code": "WR6 6QZ", "Ownership": "STW FLOC", "Latitude": "52.234562", "X": "375510", "Street_Housenumber": "JUNCTION OF MORTLAKE DRIVE AND B4197"}, {"City": "DROITWICH", "Functional_Location": "10199", "Description": "DROITWICH-LADYWOOD (STW)", "District": "LADYWOOD", "Longitude": "-2.203505", "Y": "261514", "Postal_Code": "WR9 0AR", "Ownership": "STW FLOC", "Latitude": "52.257155", "X": "386624", "Street_Housenumber": "POTTERS MILL LANE"}, {"City": "WORCESTERSHIRE", "Functional_Location": "10200", "Description": "KIDDERMINSTER - HOOBROOK  (TPS)", "District": "KIDDERMINSTER", "Longitude": "-2.2445834", "Y": "274650", "Postal_Code": "DY10 1YG", "Ownership": "STW FLOC", "Latitude": "52.368673", "X": "383026", "Street_Housenumber": "HOO BROOK WORCESTER RD"}, {"City": "WORCESTERSHIRE", "Functional_Location": "10201", "Description": "KIDDERMINSTER OLDINGTON (STW)", "District": "KIDDERMINSTER", "Longitude": "-2.2653497", "Y": "273872", "Postal_Code": "DY11 7QL", "Ownership": "STW FLOC", "Latitude": "52.363557", "X": "382373", "Street_Housenumber": "STOURPORT ROAD"}, {"City": "WORCESTERSHIRE", "Functional_Location": "10202", "Description": "LOWER SAPEY (STW)", "District": "LOWER SAPEY", "Longitude": "-2.4728094", "Y": "261100", "Postal_Code": "HR7 4XY", "Ownership": "STW FLOC", "Latitude": "52.247833", "X": "367800", "Street_Housenumber": "HIGH LANE"}, {"City": "WORCESTERSHIRE", "Functional_Location": "10203", "Description": "LITTLE WITLEY (STW)", "District": "LITTLE WITLEY", "Longitude": "-2.3117696", "Y": "263400", "Postal_Code": "WR6 6LW", "Ownership": "STW FLOC", "Latitude": "52.269604", "X": "378900", "Street_Housenumber": "WELL LANE"}, {"City": "WORCESTERSHIRE", "Functional_Location": "10204", "Description": "LINEHOLT (STW)", "District": "OMBERSLEY", "Longitude": "-2.251021", "Y": "266400", "Postal_Code": "WR9 0JZ", "Ownership": "STW FLOC", "Latitude": "52.29698", "X": "383000", "Street_Housenumber": "LINEHOLT LANE"}, {"City": "OMBERSLEY", "Functional_Location": "10205", "Description": "OMBERSLEY (STW)", "District": "DROITWICH", "Longitude": "-2.2248029", "Y": "264686", "Postal_Code": "WR9 0EJ", "Ownership": "STW FLOC", "Latitude": "52.276715", "X": "384474", "Street_Housenumber": "OFF HAYS LANE"}, {"City": "WANNERTON - BLAKEDOWN", "Functional_Location": "10207", "Description": "BLAKEDOWN (STW)", "District": "KIDDERMINISTER", "Longitude": "-2.194384", "Y": "278400", "Postal_Code": "DY10 3NJ", "Ownership": "STW FLOC", "Latitude": "52.402317", "X": "387400", "Street_Housenumber": "CHURCHILL LANE"}, {"City": "LOWER CHADDERSLEY CORBET", "Functional_Location": "10208", "Description": "CHADDESLEY CORBETT (STW)", "District": "KIDDERMINSTER", "Longitude": "-2.1635829", "Y": "272915", "Postal_Code": "DY10 4RD", "Ownership": "STW FLOC", "Latitude": "52.352451", "X": "389084", "Street_Housenumber": "FOX LANE"}, {"City": "HOLT HEATH", "Functional_Location": "10209", "Description": "HOLT HEATH (STW)", "District": "WORCESTER", "Longitude": "-2.2706015", "Y": "263267", "Postal_Code": "WR6 6ND", "Ownership": "STW FLOC", "Latitude": "52.266532", "X": "381642", "Street_Housenumber": "CHERRY ORCHARD"}, {"City": "WORCESTERSHIRE", "Functional_Location": "10210", "Description": "SHRAWLEY NEW INN LANE (STW)", "District": "SHRAWLEY", "Longitude": "-2.2971882", "Y": "266200", "Postal_Code": "WR6 6TE", "Ownership": "STW FLOC", "Latitude": "52.293627", "X": "379800", "Street_Housenumber": "NEW INN LANE"}, {"City": "WORCESTERSHIRE", "Functional_Location": "10211", "Description": "SHRAWLEY RECTORY LANE (STW)", "District": "SHRAWLEY", "Longitude": "-2.2955324", "Y": "265400", "Postal_Code": "WR6 6TW", "Ownership": "STW FLOC", "Latitude": "52.287186", "X": "379900", "Street_Housenumber": "RECTORY LANE"}, {"City": "SAINTBRIDGE", "Functional_Location": "10212", "Description": "SAINTBRIDGE - SKYLARK WAY (SPS)", "District": "GLOUCESTER", "Longitude": "-2.2198804", "Y": "216582", "Postal_Code": "GL4 4QY", "Ownership": "STW FLOC", "Latitude": "51.846955", "X": "384940", "Street_Housenumber": "SKYLARK WAY"}, {"City": "A419 NEWTOWN", "Functional_Location": "10213", "Description": "STONEHOUSE - STROUDWATER (TPS)", "District": "NEAR STONEHOUSE", "Longitude": "-2.3034434", "Y": "205738", "Postal_Code": "GL10 3RU", "Ownership": "STW FLOC", "Latitude": "51.750565", "X": "379099", "Street_Housenumber": "OPP SOUTHVIEW"}, {"City": "", "Functional_Location": "10214", "Description": "ABBEYDALE III (SPS)", "District": "GLOUCESTER", "Longitude": "-2.1835917", "Y": "216752", "Postal_Code": "GL3 3QR", "Ownership": "STW FLOC", "Latitude": "51.851243", "X": "387396", "Street_Housenumber": "BEHIND 20 APPLETON WAY"}, {"City": "CHURCHAM", "Functional_Location": "10215", "Description": "ARLINGHAM (STW)", "District": "ARLINGHAM", "Longitude": "-2.4226035", "Y": "211500", "Postal_Code": "GL2 7JN", "Ownership": "STW FLOC", "Latitude": "51.798632", "X": "371180", "Street_Housenumber": "BELL ORCHARD ARLINGHAM"}, {"City": "END OF TRACK", "Functional_Location": "10216", "Description": "AYLBURTON - HIGH STREET (SPS)", "District": "AYLBURTON", "Longitude": "-2.5518811", "Y": "201944", "Postal_Code": "GL15 6BX", "Ownership": "STW FLOC", "Latitude": "51.715395", "X": "362015", "Street_Housenumber": "NEXT TO 5 HIGH STREET"}, {"City": "LONGLEVENS", "Functional_Location": "10217", "Description": "LONGLEVENS - BRADLEY CLOSE (SPS)", "District": "GLOUCESTER", "Longitude": "-2.2171898", "Y": "219755", "Postal_Code": "GL2 9LA", "Ownership": "STW FLOC", "Latitude": "51.876028", "X": "385097", "Street_Housenumber": "OUTSIDE 1A BRADLEY CLOSE"}, {"City": "", "Functional_Location": "10218", "Description": "LONGLEVENS - BRIONNE WAY (SPS)", "District": "GLOUCESTER", "Longitude": "-2.2221273", "Y": "220405", "Postal_Code": "GL2 9RW", "Ownership": "STW FLOC", "Latitude": "51.881638", "X": "384841", "Street_Housenumber": "OPP 88 BRIONNE WAY"}, {"City": "", "Functional_Location": "10219", "Description": "BROOKTHORPE (SPS)", "District": "BROOKTHORPE", "Longitude": "-2.2408308", "Y": "212256", "Postal_Code": "GL4 0UJ", "Ownership": "STW FLOC", "Latitude": "51.809431", "X": "383706", "Street_Housenumber": "OPP 6 ST ANDREWS CLOSE"}, {"City": "A48", "Functional_Location": "10220", "Description": "BROADOAK (SPS)", "District": "BROADOAK", "Longitude": "-2.4364842", "Y": "212916", "Postal_Code": "GL14 1JE", "Ownership": "STW FLOC", "Latitude": "51.815457", "X": "369900", "Street_Housenumber": "WHITE HART INN CAR PARK"}, {"City": "RYALLS LANE", "Functional_Location": "10221", "Description": "CAMBRIDGE - RYALLS LANE (SPS)", "District": "CAMBRIDGE", "Longitude": "-2.3681363", "Y": "204409", "Postal_Code": "GL2 7AT", "Ownership": "STW FLOC", "Latitude": "51.734466", "X": "374480", "Street_Housenumber": "NEXT TO PILL HEAD COTTAGE"}, {"City": "", "Functional_Location": "10222", "Description": "COALEY (TPS)", "District": "COALEY", "Longitude": "-2.3482633", "Y": "202278", "Postal_Code": "GL11 5DS", "Ownership": "STW FLOC", "Latitude": "51.720554", "X": "376241", "Street_Housenumber": "BOX RD - NEXT TO BRIDGE COTTAGE"}, {"City": "BATH ROAD", "Functional_Location": "10223", "Description": "EASTINGTON - BATH ROAD (SPS)", "District": "EASTINGTON", "Longitude": "-2.3215496", "Y": "204512", "Postal_Code": "GL10 3AY", "Ownership": "STW FLOC", "Latitude": "51.740231", "X": "377950", "Street_Housenumber": "NEXT TO NEW HOUSE"}, {"City": "OFF BRIDGE ROAD", "Functional_Location": "10224", "Description": "FRAMPTON ON SEVERN - BACCA BOX LA (SPS)", "District": "FRAMPTON ON SEVERN", "Longitude": "-2.3672494", "Y": "208122", "Postal_Code": "GL2 7HD", "Ownership": "STW FLOC", "Latitude": "51.771503", "X": "374757", "Street_Housenumber": "NEXT TO BACCA BOX COTTAGE"}, {"City": "", "Functional_Location": "10225", "Description": "KINGSHOLM - GAMBIER PARRY GDNS (SPS)", "District": "GLOUCESTER", "Longitude": "-2.2375921", "Y": "219823", "Postal_Code": "GL2 9RD", "Ownership": "STW FLOC", "Latitude": "51.87749", "X": "383656", "Street_Housenumber": "OPP 26 GAMBIER PARRY GARDENS"}, {"City": "LONGLEVENS", "Functional_Location": "10226", "Description": "LONGLEVENS - GREYHOUND GARDENS (SPS)", "District": "GLOUCESTER", "Longitude": "-2.206226", "Y": "220239", "Postal_Code": "GL2 0XA", "Ownership": "STW FLOC", "Latitude": "51.87994", "X": "385930", "Street_Housenumber": "OPP 2 GREYHOUND GARDENS"}, {"City": "", "Functional_Location": "10227", "Description": "KINGSHOLM - ST OSWALDS ROAD (SPS)", "District": "GLOUCESTER", "Longitude": "-2.2480691", "Y": "219081", "Postal_Code": "GL1 2RQ", "Ownership": "STW FLOC", "Latitude": "51.870194", "X": "382997", "Street_Housenumber": "SAINT OSWALDS ROAD"}, {"City": "", "Functional_Location": "10228", "Description": "LONGFORD - LEWIS AVENUE (SPS)", "District": "LONGFORD", "Longitude": "-2.2370138", "Y": "220912", "Postal_Code": "GL2 9BQ", "Ownership": "STW FLOC", "Latitude": "51.886293", "X": "383855", "Street_Housenumber": "TEWKESBURY ROAD"}, {"City": "A48", "Functional_Location": "10230", "Description": "NEWNHAM - LOWER HIGH STREET (SPS)", "District": "NEWNHAM ON SEVERN", "Longitude": "-2.4470573", "Y": "212038", "Postal_Code": "GL14 1BJ", "Ownership": "STW FLOC", "Latitude": "51.806435", "X": "369316", "Street_Housenumber": "CAR PARK - NEXT TO RIVER SEVERN TOILET BLOCK"}, {"City": "", "Functional_Location": "10231", "Description": "BARNWOOD - OVERBROOK CLOSE (SPS)", "District": "GLOUCESTER", "Longitude": "-2.214173", "Y": "218112", "Postal_Code": "GL4 3BE", "Ownership": "STW FLOC", "Latitude": "51.86172", "X": "385371", "Street_Housenumber": "OPP 30 OVERBROOK CLOSE"}, {"City": "", "Functional_Location": "10232", "Description": "KINGSHOLM - PLOCK COURT (SPS)", "District": "LONGFORD", "Longitude": "-2.2377659", "Y": "220254", "Postal_Code": "GL2 9DW", "Ownership": "STW FLOC", "Latitude": "51.880151", "X": "383665", "Street_Housenumber": "NEXT TO 11 PLOCK COURT"}, {"City": "HIGH STREET", "Functional_Location": "10233", "Description": "SAUL - HIGH STREET (SPS)", "District": "SAUL", "Longitude": "-2.3665741", "Y": "209374", "Postal_Code": "GL2 7LW", "Ownership": "STW FLOC", "Latitude": "51.782951", "X": "374845", "Street_Housenumber": "NEXT TO THE PIECE"}, {"City": "SUDMEADOW ROAD", "Functional_Location": "10234", "Description": "HEMPSTED - SUDMEADOW ROAD (SPS)", "District": "GLOUCESTER", "Longitude": "-2.2610652", "Y": "218109", "Postal_Code": "GL2 5HS", "Ownership": "STW FLOC", "Latitude": "51.862155", "X": "382140", "Street_Housenumber": "NEXT TO AUTO PAINT INTERNATIONAL"}, {"City": "LOWER WESTGATE STREET", "Functional_Location": "10235", "Description": "BLACKFRIARS - WESTGATE (SPS)", "District": "GLOUCESTER", "Longitude": "-2.2537946", "Y": "218869", "Postal_Code": "GL1 2RR", "Ownership": "STW FLOC", "Latitude": "51.86815", "X": "382598", "Street_Housenumber": "INSIDE COUNTRYSIDE STORE - WEST MIDLAND FARMERS"}, {"City": "", "Functional_Location": "10236", "Description": "WESTBURY-ON-SEVERN - CHURCH (SPS)", "District": "WESTBURY ON SEVERN", "Longitude": "-2.4122877", "Y": "213839", "Postal_Code": "GL14 1PS", "Ownership": "STW FLOC", "Latitude": "51.823457", "X": "371668", "Street_Housenumber": "OPP SWAN COTTAGE"}, {"City": "", "Functional_Location": "10237", "Description": "BLACKFIARS - WESTGATE BRIDGE (SPS)", "District": "GLOUCESTER", "Longitude": "-2.2594143", "Y": "219018", "Postal_Code": "GL2 5HH", "Ownership": "STW FLOC", "Latitude": "51.862959", "X": "382362", "Street_Housenumber": "ADJ WESTGATE BRIDGE AND RIVER SEVERN - LOWER WESTGATE STREET"}, {"City": "", "Functional_Location": "10238", "Description": "WOODEND (STW)", "District": "CAM", "Longitude": "-2.388385", "Y": "201200", "Postal_Code": "GL11 5HY", "Ownership": "STW FLOC", "Latitude": "51.707993", "X": "373300", "Street_Housenumber": "WOODEND LANE"}, {"City": "LITTLEDEAN", "Functional_Location": "10239", "Description": "LITTLEDEAN (STW)", "District": "LITTLEDEAN", "Longitude": "-2.4643882", "Y": "213951", "Postal_Code": "GL14 1LA", "Ownership": "STW FLOC", "Latitude": "51.824665", "X": "368199", "Street_Housenumber": "ELTON ROAD"}, {"City": "", "Functional_Location": "10240", "Description": "LONGHOPE (STW)", "District": "LONGHOPE", "Longitude": "-2.4474156", "Y": "218065", "Postal_Code": "GL17 0AD", "Ownership": "STW FLOC", "Latitude": "51.860155", "X": "369296", "Street_Housenumber": "VELTHOUSE LANE"}, {"City": "OFF R/BOUT ON LYDNEY BY PASS", "Functional_Location": "10242", "Description": "LYDNEY - EAST MARSH (SPS)", "District": "LYDNEY", "Longitude": "-2.5262893", "Y": "202495", "Postal_Code": "GL15 5PU", "Ownership": "STW FLOC", "Latitude": "51.721572", "X": "363482", "Street_Housenumber": "NEXT TO BOATING LAKE"}, {"City": "", "Functional_Location": "10243", "Description": "LYDNEY (STW)", "District": "LYDNEY", "Longitude": "-2.5360253", "Y": "201787", "Postal_Code": "GL15 5EL", "Ownership": "STW FLOC", "Latitude": "51.712429", "X": "363408", "Street_Housenumber": "HARBOUR ROAD"}, {"City": "COALEY", "Functional_Location": "10244", "Description": "COALEY (STW)", "District": "DURSLEY", "Longitude": "-2.3560631", "Y": "201953", "Postal_Code": "GL11 5DW", "Ownership": "STW FLOC", "Latitude": "51.716512", "X": "375535", "Street_Housenumber": "HALMORE LANE"}, {"City": "", "Functional_Location": "10245", "Description": "CINDERFORD - CRUMPMEADOW (STW)", "District": "CINDERFORD", "Longitude": "-2.5093608", "Y": "213824", "Postal_Code": "GL14 2ER", "Ownership": "STW FLOC", "Latitude": "51.821458", "X": "364960", "Street_Housenumber": "VALLEY ROAD"}, {"City": "LONGLEVENS", "Functional_Location": "10246", "Description": "LONGLEVENS - ALDER CLOSE (SPS)", "District": "GLOUCESTER", "Longitude": "-2.2156263", "Y": "219858", "Postal_Code": "GL2 0AB", "Ownership": "STW FLOC", "Latitude": "51.877136", "X": "385115", "Street_Housenumber": "ALDER CLOSE ADJ 120 OXSTALLS LANE"}, {"City": "NEXT TO COLNE MILL HSE", "Functional_Location": "10247", "Description": "ALVINGTON - ST ANNES WELL (SPS)", "District": "ALVINGTON", "Longitude": "-2.5789886", "Y": "200192", "Postal_Code": "GL15 6AB", "Ownership": "STW FLOC", "Latitude": "51.699251", "X": "360127", "Street_Housenumber": "ST ANNES WELL"}, {"City": "", "Functional_Location": "10248", "Description": "AVENING (STW)", "District": "AVENING", "Longitude": "-2.1781351", "Y": "198662", "Postal_Code": "GL8 8NH", "Ownership": "STW FLOC", "Latitude": "51.682687", "X": "387798", "Street_Housenumber": "AVENING ROAD"}, {"City": "OFF HIGH STREET (A48)", "Functional_Location": "10249", "Description": "BLAKENEY (STW)", "District": "BLAKENEY", "Longitude": "-2.4765244", "Y": "206642", "Postal_Code": "GL15 4ED", "Ownership": "STW FLOC", "Latitude": "51.759251", "X": "367304", "Street_Housenumber": "MILL END"}, {"City": "RECTORY LANE", "Functional_Location": "10250", "Description": "HEMPSTED - RECTORY LANE (SPS)", "District": "HEMPSTED", "Longitude": "-2.2722089", "Y": "216955", "Postal_Code": "GL2 5LW", "Ownership": "STW FLOC", "Latitude": "51.85108", "X": "381336", "Street_Housenumber": "OPP THE RECTORY"}, {"City": "", "Functional_Location": "10251", "Description": "QUEDGELEY (CRITICAL) (TPS)", "District": "QUEDGELEY", "Longitude": "-2.2960638", "Y": "213990", "Postal_Code": "GL2 4LB", "Ownership": "STW FLOC", "Latitude": "51.824823", "X": "379715", "Street_Housenumber": "NEXT TO 50 SPOONBILL CLOSE"}, {"City": "STANLEY DOWNTON", "Functional_Location": "10252", "Description": "STANLEY DOWNTON (STW)", "District": "STROUD", "Longitude": "-2.298146", "Y": "204644", "Postal_Code": "GL10 3QX", "Ownership": "STW FLOC", "Latitude": "51.735833", "X": "379345", "Street_Housenumber": ""}, {"City": "NETHERIDGE", "Functional_Location": "10253", "Description": "NETHERIDGE (STW)", "District": "GLOUCESTER", "Longitude": "-2.2787638", "Y": "215769", "Postal_Code": "GL2 5LF", "Ownership": "STW FLOC", "Latitude": "51.840518", "X": "381166", "Street_Housenumber": "NETHERIDGE FARM - NETHERIDGE CLOSE"}, {"City": "", "Functional_Location": "10254", "Description": "WESTBURY-ON-SEVERN (STW)", "District": "WESTBURY ON SEVERN", "Longitude": "-2.4100036", "Y": "213334", "Postal_Code": "GL14 1PG", "Ownership": "STW FLOC", "Latitude": "51.817989", "X": "371715", "Street_Housenumber": "STRAND LANE"}, {"City": "UPTON SAINT LEONARDS", "Functional_Location": "10255", "Description": "GLOUCESTER - THE WHEATRIDGE EAST (SPS)", "District": "GLOUCESTER", "Longitude": "-2.2014305", "Y": "215451", "Postal_Code": "GL4 5JU", "Ownership": "STW FLOC", "Latitude": "51.837377", "X": "386257", "Street_Housenumber": "OPP 141 THE WHEATRIDGE EAST"}, {"City": "FRETHERNE", "Functional_Location": "10256", "Description": "FRAMPTON (STW)", "District": "SAUL - GLOUCESTER", "Longitude": "-2.3838508", "Y": "208900", "Postal_Code": "GL2 7JF", "Ownership": "STW FLOC", "Latitude": "51.780917", "X": "374002", "Street_Housenumber": "ARLINGTON ROAD"}, {"City": "LONGNEY", "Functional_Location": "10257", "Description": "LONGNEY (STW)", "District": "GLOUCESTER", "Longitude": "-2.3435299", "Y": "212015", "Postal_Code": "GL2 3SJ", "Ownership": "STW FLOC", "Latitude": "51.806442", "X": "376404", "Street_Housenumber": "MILL LANE"}, {"City": "INNSWORTH", "Functional_Location": "10258", "Description": "LONGFORD - OLD STW WORKS (SPS)", "District": "GLOUCESTER", "Longitude": "-2.224914", "Y": "220955", "Postal_Code": "GL2 9DA", "Ownership": "STW FLOC", "Latitude": "51.886937", "X": "384617", "Street_Housenumber": "LONGFORD"}, {"City": "", "Functional_Location": "10259", "Description": "TIBBERTON (STW)", "District": "TIBBERTON", "Longitude": "-2.3683458", "Y": "222953", "Postal_Code": "GL19 3AH", "Ownership": "STW FLOC", "Latitude": "51.90774", "X": "375122", "Street_Housenumber": "TIBBERTON ROAD"}, {"City": "", "Functional_Location": "10260", "Description": "HUNTLEY (STW)", "District": "HUNTLEY", "Longitude": "-2.3738085", "Y": "219193", "Postal_Code": "GL2 8AS", "Ownership": "STW FLOC", "Latitude": "51.870635", "X": "374340", "Street_Housenumber": "BULLEY ROAD"}, {"City": "DYMOCK", "Functional_Location": "10261", "Description": "KEMPLEY (STW)", "District": "KEMPLEY", "Longitude": "-2.4814132", "Y": "230400", "Postal_Code": "GL18 2BU", "Ownership": "STW FLOC", "Latitude": "51.966509", "X": "366500", "Street_Housenumber": ""}, {"City": "", "Functional_Location": "10262", "Description": "LANCASTER TERRACE (STW)", "District": "NEWENT", "Longitude": "-2.3947768", "Y": "226300", "Postal_Code": "GL18 1EA", "Ownership": "STW FLOC", "Latitude": "51.936362", "X": "372900", "Street_Housenumber": "HILL TOP LANE"}, {"City": "LOWER LODE LANE", "Functional_Location": "10263", "Description": "TEWKESBURY - LOWER LODE (SPS)", "District": "TEWKESBURY", "Longitude": "-2.1632497", "Y": "232190", "Postal_Code": "GL20 5SX", "Ownership": "STW FLOC", "Latitude": "51.986711", "X": "388748", "Street_Housenumber": "NEXT TO TEWKESBURY B COUNCIL YARD"}, {"City": "", "Functional_Location": "10264", "Description": "APPERLEY (STW)", "District": "APPERLEY", "Longitude": "-2.2032511", "Y": "228554", "Postal_Code": "GL19 4DL", "Ownership": "STW FLOC", "Latitude": "51.954606", "X": "386085", "Street_Housenumber": "GABB LANE"}, {"City": "ASTON UNDER HILL", "Functional_Location": "10265", "Description": "ASHTON UNDER HILL (STW)", "District": "EVESHAM", "Longitude": "-2.0039775", "Y": "237227", "Postal_Code": "WR11 7RG", "Ownership": "STW FLOC", "Latitude": "52.035877", "X": "399893", "Street_Housenumber": "BACK LANE"}, {"City": "LAKE LANE", "Functional_Location": "10266", "Description": "CHURCHAM - LAKE LANE (SPS)", "District": "CHURCHAM", "Longitude": "-2.3514892", "Y": "219042", "Postal_Code": "GL2 8BG", "Ownership": "STW FLOC", "Latitude": "51.869364", "X": "375788", "Street_Housenumber": "OPPOSITE TOULANDS"}, {"City": "DYMOCK", "Functional_Location": "10267", "Description": "DYMOCK (STW)", "District": "GLOUCESTER", "Longitude": "-2.4339802", "Y": "231314", "Postal_Code": "GL18 2AF", "Ownership": "STW FLOC", "Latitude": "51.977348", "X": "370134", "Street_Housenumber": "LEDBURY ROAD"}, {"City": "", "Functional_Location": "10268", "Description": "GORSLEY - IVY HOUSE (STW)", "District": "GORSLEY", "Longitude": "-2.4725073", "Y": "226600", "Postal_Code": "HR9 7SL", "Ownership": "STW FLOC", "Latitude": "51.93764", "X": "367800", "Street_Housenumber": "IVY HOUSE LANE"}, {"City": "DUMBLETON - GREAT WASHBOURNE", "Functional_Location": "10269", "Description": "GT WASHBOURNE (STW)", "District": "ALDERTON", "Longitude": "-2.0216032", "Y": "234363", "Postal_Code": "GL20 7AR", "Ownership": "STW FLOC", "Latitude": "52.00858", "X": "398416", "Street_Housenumber": ""}, {"City": "OXENTON", "Functional_Location": "10270", "Description": "OXENTON (SPS)", "District": "CHELTENHAM", "Longitude": "-2.0660407", "Y": "231281", "Postal_Code": "GL52 9SE", "Ownership": "STW FLOC", "Latitude": "51.980611", "X": "395386", "Street_Housenumber": "OPPOSITE THE OLD MALTHOUSE"}, {"City": "GLOUCESTER", "Functional_Location": "10271", "Description": "CORSE - SNIGGS END (SPS)", "District": "STAUNTON", "Longitude": "-2.3077844", "Y": "228606", "Postal_Code": "GL19 3RP", "Ownership": "STW FLOC", "Latitude": "51.958253", "X": "379002", "Street_Housenumber": "END OF TRACK NEXT TO SNIGGS END FARM"}, {"City": "SNOWSHILL", "Functional_Location": "10272", "Description": "SNOWSHILL (SPS)", "District": "BROADWAY", "Longitude": "-1.8608847", "Y": "233916", "Postal_Code": "WR12 7JU", "Ownership": "STW FLOC", "Latitude": "52.002135", "X": "409322", "Street_Housenumber": ""}, {"City": "OLD GLOUCESTER ROAD", "Functional_Location": "10273", "Description": "STAVERTON BRIDGE (SPS)", "District": "STAVERTON", "Longitude": "-2.1573986", "Y": "222567", "Postal_Code": "GL51 0TF", "Ownership": "STW FLOC", "Latitude": "51.900353", "X": "389113", "Street_Housenumber": "NEXT TO STAVERTON BRIDGE"}, {"City": "TIBBERTON", "Functional_Location": "10275", "Description": "TIBBERTON - MAIN ROAD (SPS)", "District": "HEREFORD", "Longitude": "-2.3565353", "Y": "222289", "Postal_Code": "GL19 3AQ", "Ownership": "STW FLOC", "Latitude": "51.899523", "X": "375677", "Street_Housenumber": "REAR OF LOW LANDS - MAIN ROAD"}, {"City": "DOWN HATHERLEY", "Functional_Location": "10276", "Description": "INNSWORTH (SPS)", "District": "GLOUCESTER", "Longitude": "-2.2078649", "Y": "222056", "Postal_Code": "GL3 1DZ", "Ownership": "STW FLOC", "Latitude": "51.888785", "X": "386032", "Street_Housenumber": "FROGFURLONG LANE"}, {"City": "KEMERTON", "Functional_Location": "10277", "Description": "KEMERTON (SPS)", "District": "TEWKESBURY", "Longitude": "-2.0891697", "Y": "236027", "Postal_Code": "GL20 8HW", "Ownership": "STW FLOC", "Latitude": "52.013861", "X": "394144", "Street_Housenumber": "TRACK OFF MAIN ROAD BY TENNIS CTS - MERECOMBE HILL"}, {"City": "", "Functional_Location": "10278", "Description": "STOKE ORCHARD (STW)", "District": "STOKE ORCHARD", "Longitude": "149.124", "Y": "227003", "Postal_Code": "GL52 4SG", "Ownership": "STW FLOC", "Latitude": "-35.308", "X": "392530", "Street_Housenumber": "MILL LANE"}, {"City": "", "Functional_Location": "10279", "Description": "CHURCHAM (STW)", "District": "CHURCHAM", "Longitude": "-2.3514892", "Y": "219284", "Postal_Code": "GL2 8BG", "Ownership": "STW FLOC", "Latitude": "51.869364", "X": "375656", "Street_Housenumber": "Bulley Lane"}, {"City": "DUMBLETON", "Functional_Location": "10280", "Description": "DUMBLETON (STW)", "District": "EVESHAM", "Longitude": "149.124", "Y": "236600", "Postal_Code": "WR11 6TJ", "Ownership": "STW FLOC", "Latitude": "-35.308", "X": "401500", "Street_Housenumber": ""}, {"City": "", "Functional_Location": "10281", "Description": "GORSLEY DALE (SPS)", "District": "GORSLEY COMMON", "Longitude": "-2.4729168", "Y": "225734", "Postal_Code": "HR9 7SX", "Ownership": "STW FLOC", "Latitude": "51.929555", "X": "367574", "Street_Housenumber": "NEXT TO 6 DALEBROOK"}, {"City": "ALDERTON", "Functional_Location": "10282", "Description": "ALDERTON (STW)", "District": "TEWKESBURY", "Longitude": "-2.005459", "Y": "232927", "Postal_Code": "GL20 8NH", "Ownership": "STW FLOC", "Latitude": "51.993307", "X": "399460", "Street_Housenumber": "STOW ROAD"}, {"City": "NEXT TO CARPE DIEM", "Functional_Location": "10283", "Description": "DOWN HATHERLEY - ASH LANE (SPS)", "District": "DOWN HATHERLEY", "Longitude": "-2.2084645", "Y": "222455", "Postal_Code": "GL2 9QA", "Ownership": "STW FLOC", "Latitude": "51.90218", "X": "385460", "Street_Housenumber": "ASH LANE"}, {"City": "ASTON INGHAM", "Functional_Location": "10284", "Description": "ASTON INGHAM (STW)", "District": "ROSS ON WYE", "Longitude": "-2.4596025", "Y": "223833", "Postal_Code": "HR9 7LS", "Ownership": "STW FLOC", "Latitude": "51.910359", "X": "368485", "Street_Housenumber": "COWLEY LANE"}, {"City": "BECKFORD", "Functional_Location": "10285", "Description": "BECKFORD (STW)", "District": "TEWKESBURY", "Longitude": "-2.0380151", "Y": "235469", "Postal_Code": "GL20 7AF", "Ownership": "STW FLOC", "Latitude": "52.017072", "X": "397443", "Street_Housenumber": "BACK LANE"}, {"City": "BIRDLIP", "Functional_Location": "10286", "Description": "BIRDLIP (STW)", "District": "GLOUCESTER", "Longitude": "-2.0990978", "Y": "213816", "Postal_Code": "GL4 8JL", "Ownership": "STW FLOC", "Latitude": "51.825352", "X": "393130", "Street_Housenumber": "ROMAN ROAD"}, {"City": "", "Functional_Location": "10287", "Description": "BROADWAY (STW)", "District": "BROADWAY", "Longitude": "-1.8820997", "Y": "237693", "Postal_Code": "WR12 7LX", "Ownership": "STW FLOC", "Latitude": "52.033274", "X": "408293", "Street_Housenumber": "PRY LANE"}, {"City": "GLOUCESTER ROAD", "Functional_Location": "10288", "Description": "HARTPURY - WATERSMEET (SPS)", "District": "HARTPURY", "Longitude": "-2.2938297", "Y": "225881", "Postal_Code": "GL19 3BT", "Ownership": "STW FLOC", "Latitude": "51.927307", "X": "379919", "Street_Housenumber": "NEXT TO 1 DOUBLE ROOFS"}, {"City": "BODDINGTON", "Functional_Location": "10289", "Description": "HAYDEN (STW)", "District": "CHELTENHAM", "Longitude": "-2.1404294", "Y": "222954", "Postal_Code": "GL51 0SP", "Ownership": "STW FLOC", "Latitude": "51.907037", "X": "390687", "Street_Housenumber": "HAYDEN GREEN"}, {"City": "HAYDEN LANE", "Functional_Location": "10290", "Description": "HAYDEN (TPS)", "District": "HAYDEN GREEN", "Longitude": "-2.1404294", "Y": "223547", "Postal_Code": "GL51 0SP", "Ownership": "STW FLOC", "Latitude": "51.907037", "X": "390430", "Street_Housenumber": "NEXT TO WINDHAVEN"}, {"City": "", "Functional_Location": "10291", "Description": "MYTHE (SPS)", "District": "TEWKESBURY", "Longitude": "-2.1572879", "Y": "233219", "Postal_Code": "GL20 6EG", "Ownership": "STW FLOC", "Latitude": "51.997454", "X": "389317", "Street_Housenumber": "LEDBURY ROAD"}, {"City": "", "Functional_Location": "10292", "Description": "NEWENT (STW)", "District": "NEWENT", "Longitude": "-2.3918706", "Y": "226115", "Postal_Code": "GL18 1ES", "Ownership": "STW FLOC", "Latitude": "51.933351", "X": "373039", "Street_Housenumber": "CLEEVE MILL LANE"}, {"City": "NEWTOWN", "Functional_Location": "10293", "Description": "NEWTOWN-NORTHWAY LANE (SPS)", "District": "TEWKESBURY", "Longitude": "-2.1289299", "Y": "233723", "Postal_Code": "GL20 8PF", "Ownership": "STW FLOC", "Latitude": "52.002694", "X": "391224", "Street_Housenumber": "36 NORTHWAY LANE"}, {"City": "", "Functional_Location": "10294", "Description": "CORSE - ORIDGE STREET (SPS)", "District": "CORSE", "Longitude": "-2.3129982", "Y": "227810", "Postal_Code": "GL19 3DA", "Ownership": "STW FLOC", "Latitude": "51.946291", "X": "378723", "Street_Housenumber": "OPP THE CHESTNUTS - ORIDGE STREET"}, {"City": "PITTS MILL", "Functional_Location": "10295", "Description": "PITTS MILL (STW)", "District": "STAUNTON", "Longitude": "-2.3129982", "Y": "227817", "Postal_Code": "GL19 3DA", "Ownership": "STW FLOC", "Latitude": "51.946291", "X": "378728", "Street_Housenumber": "ORIDGE LANE"}, {"City": "PRINCE CRESENT", "Functional_Location": "10296", "Description": "CORSE - PRINCE CRESCENT (SPS)", "District": "STAUNTON", "Longitude": "-2.309565", "Y": "228908", "Postal_Code": "GL19 3RF", "Ownership": "STW FLOC", "Latitude": "51.959004", "X": "378480", "Street_Housenumber": "NEXT TO BROOK FARM"}, {"City": "MILL LANE", "Functional_Location": "10297", "Description": "STOKE ORCHARD - MILL LANE (SPS)", "District": "STOKE ORCHARD", "Longitude": "-2.1208369", "Y": "228035", "Postal_Code": "GL52 7SG", "Ownership": "STW FLOC", "Latitude": "51.951033", "X": "391779", "Street_Housenumber": "NEXT TO CHASEBEAMS"}, {"City": "", "Functional_Location": "10298", "Description": "TEDDINGTON - A435 (SPS)", "District": "TEDDINGTON", "Longitude": "-2.0660407", "Y": "232960", "Postal_Code": "GL52 9SE", "Ownership": "STW FLOC", "Latitude": "51.980611", "X": "395809", "Street_Housenumber": "ON A435"}, {"City": "WALTON CARDIFF", "Functional_Location": "10299", "Description": "TEWKESBURY - WALTON CARDIFF (SPS)", "District": "TEWKESBURY", "Longitude": "-2.1412422", "Y": "232789", "Postal_Code": "GL20 8DY", "Ownership": "STW FLOC", "Latitude": "51.99448", "X": "390430", "Street_Housenumber": "NEXT TO PLAYING FIELD"}, {"City": "TIRLEY", "Functional_Location": "10300", "Description": "TIRLEY (STW)", "District": "GLOUCESTER", "Longitude": "-2.2385061", "Y": "228100", "Postal_Code": "GL19 4EY", "Ownership": "STW FLOC", "Latitude": "51.954018", "X": "384000", "Street_Housenumber": "MAIN ROAD"}, {"City": "THE STREET", "Functional_Location": "10301", "Description": "TIRLEY - THE STREET (SPS)", "District": "TIRLEY", "Longitude": "-2.2370006", "Y": "228653", "Postal_Code": "GL19 4ES", "Ownership": "STW FLOC", "Latitude": "51.955513", "X": "383793", "Street_Housenumber": "NEXT TO ORCHARD HOUSE"}, {"City": "TODDINGTON", "Functional_Location": "10302", "Description": "TODDINGTON (STW)", "District": "CHELTENHAM", "Longitude": "-1.9494404", "Y": "233122", "Postal_Code": "GL54 5DN", "Ownership": "STW FLOC", "Latitude": "51.998448", "X": "403878", "Street_Housenumber": "THE MANOR - CHURCH ROAD"}, {"City": "UCKINGHAM", "Functional_Location": "10303", "Description": "UCKINGTON BRAKE (SPS)", "District": "ELMSTONE HARDWICKE", "Longitude": "-2.1147155", "Y": "226448", "Postal_Code": "GL51 9TH", "Ownership": "STW FLOC", "Latitude": "51.935602", "X": "392315", "Street_Housenumber": "ADJ GREYSTONES - LOWDILOW LANE -"}, {"City": "", "Functional_Location": "10304", "Description": "UPLEADON - GOLDEN VALLEY (SPS)", "District": "GOLDEN VALLEY", "Longitude": "-2.3575444", "Y": "225525", "Postal_Code": "GL18 1HN", "Ownership": "STW FLOC", "Latitude": "51.927742", "X": "375661", "Street_Housenumber": "NEAR THE READINGS"}, {"City": "WINCHCOMBE", "Functional_Location": "10305", "Description": "WINCHCOMBE (STW)", "District": "CHELTENHAM", "Longitude": "-1.9567118", "Y": "229308", "Postal_Code": "GL54 5NS", "Ownership": "STW FLOC", "Latitude": "51.96469", "X": "403082", "Street_Housenumber": "BROADWAY ROAD"}, {"City": "OXENTON", "Functional_Location": "10306", "Description": "WOOLSTONE (STW)", "District": "CHELTENHAM", "Longitude": "-2.07152", "Y": "230557", "Postal_Code": "GL52 8SD", "Ownership": "STW FLOC", "Latitude": "51.974512", "X": "395234", "Street_Housenumber": "EVESHAM ROAD"}, {"City": "OXENHALL", "Functional_Location": "10307", "Description": "FOUR OAKS (STW)", "District": "DYMOCK", "Longitude": "-2.4477183", "Y": "228405", "Postal_Code": "GL18 1RW", "Ownership": "STW FLOC", "Latitude": "51.9476", "X": "369477", "Street_Housenumber": ""}, {"City": "BROCKHAMPTON", "Functional_Location": "10308", "Description": "BROCKHAMPTON (STW)", "District": "CHELTENHAM", "Longitude": "-2.0888776", "Y": "226065", "Postal_Code": "GL51 9RS", "Ownership": "STW FLOC", "Latitude": "51.93281", "X": "394610", "Street_Housenumber": ""}, {"City": "", "Functional_Location": "10309", "Description": "CLIFFORDS MESNE (STW)", "District": "CLIFFORDS MESNE", "Longitude": "-2.4362903", "Y": "222900", "Postal_Code": "GL18 1JT", "Ownership": "STW FLOC", "Latitude": "51.904918", "X": "370100", "Street_Housenumber": "CLIFFORDS MESNE"}, {"City": "FORTHAMPTON", "Functional_Location": "10310", "Description": "FORTHAMPTON (STW)", "District": "GLOUCESTER", "Longitude": "-2.2092459", "Y": "232600", "Postal_Code": "GL19 4QA", "Ownership": "STW FLOC", "Latitude": "51.991979", "X": "385800", "Street_Housenumber": "CHURCH LANE"}, {"City": "OFF BULLY LANE - SPRINGDALE", "Functional_Location": "10311", "Description": "HUNTLEY - SPRINGDALE (CSO)", "District": "CHURCHAM", "Longitude": "-2.3738085", "Y": "218981", "Postal_Code": "GL2 8AS", "Ownership": "STW FLOC", "Latitude": "51.870635", "X": "374204", "Street_Housenumber": "NEXT TO JOMER"}, {"City": "LAVERTON VILLAGE", "Functional_Location": "10312", "Description": "LAVERTON (STW)", "District": "BROADWAY", "Longitude": "-1.8978591", "Y": "235800", "Postal_Code": "WR12 7NA", "Ownership": "STW FLOC", "Latitude": "52.019686", "X": "407000", "Street_Housenumber": ""}, {"City": "LOWER LODE", "Functional_Location": "10313", "Description": "TEWKESBURY (STW)", "District": "TEWKESBURY", "Longitude": "-2.1765591", "Y": "231848", "Postal_Code": "GL20 7DP", "Ownership": "STW FLOC", "Latitude": "51.982996", "X": "388310", "Street_Housenumber": "LOWER LODE LANE"}, {"City": "WORMINGTON", "Functional_Location": "10314", "Description": "WORMINGTON (STW)", "District": "BROADWAY", "Longitude": "-1.9433466", "Y": "236391", "Postal_Code": "WR12 7NL", "Ownership": "STW FLOC", "Latitude": "52.025884", "X": "403687", "Street_Housenumber": ""}, {"City": "STANTON", "Functional_Location": "10315", "Description": "STANTON - GLOUCESTERSHIRE (STW)", "District": "BROADWAY", "Longitude": "-1.902975", "Y": "233802", "Postal_Code": "WR12 7NQ", "Ownership": "STW FLOC", "Latitude": "52.005728", "X": "406290", "Street_Housenumber": "STANWAY ROAD"}, {"City": "", "Functional_Location": "10316", "Description": "HALLWOOD GREEN (STW)", "District": "DYMOCK", "Longitude": "-2.4727233", "Y": "233800", "Postal_Code": "GL18 2ED", "Ownership": "STW FLOC", "Latitude": "51.999649", "X": "367600", "Street_Housenumber": "HALLWOOD GREEN"}, {"City": "ASTON MAGNA", "Functional_Location": "10317", "Description": "ASTON MAGNA (STW)", "District": "MORETON IN MARSH", "Longitude": "-1.7080348", "Y": "235986", "Postal_Code": "GL56 9QL", "Ownership": "STW FLOC", "Latitude": "52.020106", "X": "420117", "Street_Housenumber": ""}, {"City": "BEARLEY", "Functional_Location": "10318", "Description": "BEARLEY (STW)", "District": "STRATFORD UPON AVON", "Longitude": "-1.7497081", "Y": "260442", "Postal_Code": "CV37 0ET", "Ownership": "STW FLOC", "Latitude": "52.245343", "X": "417398", "Street_Housenumber": "BIRMINGHAM ROAD"}, {"City": "", "Functional_Location": "10319", "Description": "BUTLERS MARSTON (STW)", "District": "BUTLERS MARSTON", "Longitude": "-1.5378518", "Y": "250028", "Postal_Code": "CV35 0NN", "Ownership": "STW FLOC", "Latitude": "52.147616", "X": "431654", "Street_Housenumber": "BANK VIEW"}, {"City": "DORSINGTON", "Functional_Location": "10320", "Description": "DORSINGTON (STW)", "District": "STRATFORD ON AVON", "Longitude": "-1.807243", "Y": "249800", "Postal_Code": "CV37 8AX", "Ownership": "STW FLOC", "Latitude": "52.146169", "X": "413500", "Street_Housenumber": "BRAGGINGTON LANE"}, {"City": "ETTINGTON", "Functional_Location": "10321", "Description": "ETTINGTON WORKS (STW)", "District": "STRATFORD ON AVON", "Longitude": "-1.6056281", "Y": "249037", "Postal_Code": "CV37 7SG", "Ownership": "STW FLOC", "Latitude": "52.138242", "X": "427122", "Street_Housenumber": "HILLMAN WAY"}, {"City": "", "Functional_Location": "10322", "Description": "OLD MILVERTON (STW)", "District": "OLD MILVERTON", "Longitude": "-1.5601236", "Y": "267530", "Postal_Code": "CV32 6SA", "Ownership": "STW FLOC", "Latitude": "52.303316", "X": "429745", "Street_Housenumber": "OFF OLD MILVERTON ROAD"}, {"City": "", "Functional_Location": "10323", "Description": "OXHILL (STW)", "District": "OXHILL", "Longitude": "-1.5376378", "Y": "246477", "Postal_Code": "CV35 0RH", "Ownership": "STW FLOC", "Latitude": "52.114638", "X": "431428", "Street_Housenumber": "OFF KINETON ROAD"}, {"City": "PRESTON ON STOUR", "Functional_Location": "10324", "Description": "PRESTON-ON-STOUR (STW)", "District": "STRATFORD ON AVON", "Longitude": "-1.702981", "Y": "249737", "Postal_Code": "CV37 8NG", "Ownership": "STW FLOC", "Latitude": "52.147284", "X": "420532", "Street_Housenumber": ""}, {"City": "RADWAY", "Functional_Location": "10325", "Description": "RADWAY (STW)", "District": "LANGTON LANE", "Longitude": "-1.4598348", "Y": "248456", "Postal_Code": "CV35 0UQ", "Ownership": "STW FLOC", "Latitude": "52.132369", "X": "436941", "Street_Housenumber": "LANGDON LANE"}, {"City": "SNITTERFIELD", "Functional_Location": "10326", "Description": "SNITTERFIELD (STW)", "District": "STRATFORD UPON AVON", "Longitude": "-1.6775396", "Y": "260429", "Postal_Code": "CV37 0LP", "Ownership": "STW FLOC", "Latitude": "52.240097", "X": "422234", "Street_Housenumber": "PIDGEON GREEN"}, {"City": "SIBFORD FERRIS", "Functional_Location": "10327", "Description": "SIBFORD FERRIS (STW)", "District": "SIBFORD GOWER - OXON", "Longitude": "-1.4884804", "Y": "237382", "Postal_Code": "OX15 5SB", "Ownership": "STW FLOC", "Latitude": "52.035605", "X": "435198", "Street_Housenumber": "THE COLONY"}, {"City": "TANWORTH IN ARDEN", "Functional_Location": "10328", "Description": "TANWORTH-IN-ARDEN (STW)", "District": "SOLIHULL", "Longitude": "-1.8342918", "Y": "270450", "Postal_Code": "B94 5AH", "Ownership": "STW FLOC", "Latitude": "52.331618", "X": "411279", "Street_Housenumber": "OFF WELL LANE"}, {"City": "DRAYCOTT", "Functional_Location": "10329", "Description": "BLOCKLEY (STW)", "District": "MORETON IN THE MARSH", "Longitude": "-1.7383044", "Y": "236482", "Postal_Code": "GL56 9LQ", "Ownership": "STW FLOC", "Latitude": "52.022227", "X": "417989", "Street_Housenumber": "OFF STATION ROAD"}, {"City": "", "Functional_Location": "10330", "Description": "CHIPPING CAMPDEN (STW)", "District": "CHIPPING CAMPDEN", "Longitude": "-1.7696558", "Y": "239399", "Postal_Code": "GL55 6HY", "Ownership": "STW FLOC", "Latitude": "52.052663", "X": "416311", "Street_Housenumber": "PAXFORD ROAD"}, {"City": "HONINGTON", "Functional_Location": "10332", "Description": "SHIPSTON FELL MILL (STW)", "District": "SHIPSTON ON STOUR", "Longitude": "-1.6089991", "Y": "240887", "Postal_Code": "CV36 5AD", "Ownership": "STW FLOC", "Latitude": "52.070221", "X": "426887", "Street_Housenumber": "FELL MILL"}, {"City": "", "Functional_Location": "10333", "Description": "RADWAY (TPS)", "District": "RADWAY", "Longitude": "-1.4606266", "Y": "248400", "Postal_Code": "CV35 0UG", "Ownership": "STW FLOC", "Latitude": "52.13213", "X": "436900", "Street_Housenumber": "THE GREEN"}, {"City": "", "Functional_Location": "10334", "Description": "STRATFORD - STANNELS CLOSE (TPS)", "District": "STRATFORD UPON AVON", "Longitude": "-1.7129095", "Y": "253400", "Postal_Code": "CV37 8HN", "Ownership": "STW FLOC", "Latitude": "52.173713", "X": "418300", "Street_Housenumber": "STANNELS CLOSE"}, {"City": "COMBROKE", "Functional_Location": "10335", "Description": "COMBROOK (STW)", "District": "WARWICK", "Longitude": "-1.5533616", "Y": "251602", "Postal_Code": "CV35 9HN", "Ownership": "STW FLOC", "Latitude": "52.163292", "X": "430543", "Street_Housenumber": "CHURCH HILL"}, {"City": "LUDDINGTON", "Functional_Location": "10336", "Description": "LUDDINGTON (SPS)", "District": "STRATFORD ON AVON", "Longitude": "-1.7583141", "Y": "252349", "Postal_Code": "CV37 9SJ", "Ownership": "STW FLOC", "Latitude": "52.170857", "X": "416540", "Street_Housenumber": ""}, {"City": "", "Functional_Location": "10337", "Description": "STRATFORD - PADDOCK LANE (SPS)", "District": "STRATFORD ON AVON", "Longitude": "-1.7166804", "Y": "254011", "Postal_Code": "CV37 9LY", "Ownership": "STW FLOC", "Latitude": "52.183207", "X": "419530", "Street_Housenumber": "PADDOCK LANE"}, {"City": "ADMINGTON", "Functional_Location": "10338", "Description": "ADMINGTON (STW)", "District": "SHIPSTON ON STOUR", "Longitude": "-1.7052504", "Y": "246448", "Postal_Code": "CV36 4JW", "Ownership": "STW FLOC", "Latitude": "52.115625", "X": "420251", "Street_Housenumber": ""}, {"City": "ILMINGTON", "Functional_Location": "10340", "Description": "ILMINGTON (STW)", "District": "SHIPTON ON STOUR", "Longitude": "-1.6864516", "Y": "244057", "Postal_Code": "CV36 4RT", "Ownership": "STW FLOC", "Latitude": "52.093235", "X": "422236", "Street_Housenumber": "ARMSCOTE ROAD"}, {"City": "LONG COMPTON", "Functional_Location": "10341", "Description": "LONG COMPTON (STW)", "District": "SHIPSTON ON STOUR", "Longitude": "-1.5843979", "Y": "233432", "Postal_Code": "CV36 5JR", "Ownership": "STW FLOC", "Latitude": "51.998302", "X": "428239", "Street_Housenumber": "SHIPSTON ROAD"}, {"City": "NORTON LINDSEY", "Functional_Location": "10342", "Description": "NORTON LINDSEY (STW)", "District": "WARWICK", "Longitude": "-1.6645102", "Y": "262751", "Postal_Code": "CV35 8JH", "Ownership": "STW FLOC", "Latitude": "52.264793", "X": "423022", "Street_Housenumber": "CANADA LANE"}, {"City": "GREAT WOLFORD", "Functional_Location": "10343", "Description": "NETHERCOTE (STW)", "District": "SHIPSTON ON STOUR", "Longitude": "-1.6307215", "Y": "234592", "Postal_Code": "CV36 5NF", "Ownership": "STW FLOC", "Latitude": "52.008337", "X": "425556", "Street_Housenumber": ""}, {"City": "STRETTON ON FOSSE", "Functional_Location": "10344", "Description": "STRETTON-ON-FOSSE (STW)", "District": "MORETON IN MARSH", "Longitude": "-1.6651314", "Y": "238510", "Postal_Code": "GL56 9RE", "Ownership": "STW FLOC", "Latitude": "52.049581", "X": "422792", "Street_Housenumber": "OFF A429"}, {"City": "LOWER TYSOE", "Functional_Location": "10345", "Description": "TYSOE (STW)", "District": "SHIPSTON", "Longitude": "-1.5061865", "Y": "244308", "Postal_Code": "CV35 0SJ", "Ownership": "STW FLOC", "Latitude": "52.095693", "X": "433966", "Street_Housenumber": "BACK LANE"}, {"City": "ULLENHALL", "Functional_Location": "10346", "Description": "ULLENHALL (STW)", "District": "SOLIHULL", "Longitude": "-1.819143", "Y": "266973", "Postal_Code": "B95 5NN", "Ownership": "STW FLOC", "Latitude": "52.300265", "X": "412422", "Street_Housenumber": "ULLENHALL ROAD"}, {"City": "WHICHFORD", "Functional_Location": "10347", "Description": "WHICHFORD (STW)", "District": "SHIPSTON ON STOUR", "Longitude": "-1.5482731", "Y": "235099", "Postal_Code": "CV36 5PQ", "Ownership": "STW FLOC", "Latitude": "52.011529", "X": "430954", "Street_Housenumber": "BARRATTS HILL"}, {"City": "CLIFFORD CHAMBERS", "Functional_Location": "10348", "Description": "STRATFORD-MILCOTE (STW)", "District": "STRATFORD ON AVON", "Longitude": "-1.7470954", "Y": "252778", "Postal_Code": "CV37 8JN", "Ownership": "STW FLOC", "Latitude": "52.168937", "X": "418265", "Street_Housenumber": "MILCOTE"}, {"City": "CLAVERDON", "Functional_Location": "10349", "Description": "CLAVERDON (STW)", "District": "WARWICK", "Longitude": "-1.6928752", "Y": "264007", "Postal_Code": "CV35 8PQ", "Ownership": "STW FLOC", "Latitude": "52.275803", "X": "420983", "Street_Housenumber": "SADDLEBOW LANE"}, {"City": "CHERINGTON", "Functional_Location": "10350", "Description": "CHERINGTON (STW)", "District": "SHIPSTON ON STOUR", "Longitude": "-1.5775281", "Y": "236950", "Postal_Code": "CV36 5HS", "Ownership": "STW FLOC", "Latitude": "52.025618", "X": "428971", "Street_Housenumber": ""}, {"City": "LEEK WOOTTON", "Functional_Location": "10351", "Description": "LEEK WOOTTON (STW)", "District": "WARWICK", "Longitude": "-1.5666526", "Y": "268852", "Postal_Code": "CV35 7PN", "Ownership": "STW FLOC", "Latitude": "52.318048", "X": "429464", "Street_Housenumber": "HILL WOOTTON ROAD"}, {"City": "LONG MARSTON", "Functional_Location": "10352", "Description": "LONG MARSTON (STW)", "District": "STRATFORD ON AVON", "Longitude": "-1.7742261", "Y": "248525", "Postal_Code": "CV37 8RQ", "Ownership": "STW FLOC", "Latitude": "52.135484", "X": "415610", "Street_Housenumber": "WYRE LANE"}, {"City": "ROWINGTON", "Functional_Location": "10353", "Description": "ROWINGTON (STW)", "District": "WARWICK", "Longitude": "-1.7230399", "Y": "269909", "Postal_Code": "CV35 7DN", "Ownership": "STW FLOC", "Latitude": "52.32491", "X": "418782", "Street_Housenumber": "DICKS LANE"}, {"City": "", "Functional_Location": "10354", "Description": "WARWICK - LONGBRIDGE (STW)", "District": "WARWICK", "Longitude": "-1.6013405", "Y": "263105", "Postal_Code": "CV34 6RA", "Ownership": "STW FLOC", "Latitude": "52.266602", "X": "427410", "Street_Housenumber": "STRATFORD ROAD"},